City_ID,City,Country,Lat,Lng,Max Temp,Humidity,Cloudiness,Wind Speed,Current Description
0,Geraldton,AU,-28.7667,114.6,287.38,82,58,2.57,broken clouds
1,Puerto Ayora,EC,-0.7393,-90.3518,297.13,92,99,3.46,overcast clouds
2,Lavrentiya,RU,65.5833,-171.0,247.3,87,13,1.34,few clouds
3,Airai,TL,-8.9266,125.4092,292.53,78,100,0.47,overcast clouds
4,Xichang,CN,27.8964,102.2634,278.85,89,63,0.35,broken clouds
5,Mataura,NZ,-46.1927,168.8643,290.08,42,59,1.46,broken clouds
6,Rikitea,PF,-23.1203,-134.9692,298.51,76,87,3.86,light rain
7,Busselton,AU,-33.65,115.3333,282.62,60,100,3.94,overcast clouds
8,Sawtell,AU,-30.3833,153.1,295.33,74,40,5.66,scattered clouds
9,Patnanungan,PH,14.7833,122.1833,299.08,83,100,10.79,overcast clouds
10,Abu Kamal,SY,34.4506,40.9171,286.23,47,100,0.84,overcast clouds
11,New Norfolk,AU,-42.7826,147.0587,290.33,53,11,1.34,few clouds
12,Kortkeros,RU,61.8106,51.5806,255.47,96,89,2.16,overcast clouds
13,Sitka,US,57.0531,-135.33,274.09,75,90,2.57,light snow
14,Foca,TR,38.6703,26.7566,287.06,83,100,7.52,overcast clouds
15,Georgetown,MY,5.4112,100.3354,299.76,81,20,0.45,few clouds
16,Hilo,US,19.7297,-155.09,299.0,55,75,2.57,broken clouds
17,Carnarvon,AU,-24.8667,113.6333,293.19,73,3,6.69,clear sky
18,Vidim,RU,56.4088,103.1106,258.17,97,100,1.72,overcast clouds
19,Arraial Do Cabo,BR,-22.9661,-42.0278,297.98,89,86,10.01,light rain
20,Inta,RU,66.0317,60.1659,261.25,94,100,5.29,overcast clouds
21,Ushuaia,AR,-54.8,-68.3,280.96,49,75,11.83,broken clouds
22,Pangody,RU,65.85,74.4859,240.13,99,19,2.34,few clouds
23,Provideniya,RU,64.3833,-173.3,251.21,64,0,2.0,clear sky
24,Nexo,DK,55.0607,15.1306,277.2,91,100,4.59,overcast clouds
25,Cherskiy,RU,68.75,161.3,231.66,100,49,0.64,scattered clouds
26,Komsomolskiy,UZ,40.4272,71.7189,274.83,55,43,3.09,haze
27,Albany,US,42.6001,-73.9662,277.89,43,0,4.06,clear sky
28,Grindavik,IS,63.8424,-22.4338,278.41,87,75,8.75,light rain
29,Jamestown,US,42.097,-79.2353,278.92,50,1,2.68,clear sky
30,Mahebourg,MU,-20.4081,57.7,297.31,88,75,7.72,light intensity shower rain
31,Ulladulla,AU,-35.35,150.4667,292.52,66,1,2.14,clear sky
32,Vaini,TO,-21.2,-175.2,301.24,83,40,6.17,light rain
33,Vizianagaram,IN,18.1167,83.4167,293.38,85,33,2.07,scattered clouds
34,Adiake,CI,5.2863,-3.304,301.92,85,29,2.78,scattered clouds
35,Saskylakh,RU,71.9167,114.0833,230.43,100,70,1.49,broken clouds
36,Riyadh,SA,24.6877,46.7219,284.23,29,33,2.78,scattered clouds
37,Otane,NZ,-39.8833,176.6333,294.48,88,100,3.35,overcast clouds
38,Ribeira Grande,PT,38.5167,-28.7,287.98,53,100,8.39,overcast clouds
39,Bethel,US,41.3712,-73.414,279.58,45,1,1.54,clear sky
40,Gonaives,HT,19.45,-72.6833,301.14,74,7,3.35,clear sky
41,Oranjemund,NA,-28.55,16.4333,289.72,92,56,1.24,broken clouds
42,Samarai,PG,-10.6167,150.6667,301.81,75,100,4.96,overcast clouds
43,East London,ZA,-33.0153,27.9116,295.29,95,100,3.52,light rain
44,Punta Arenas,CL,-53.15,-70.9167,283.21,34,0,10.29,clear sky
45,La Plata,AR,-34.9215,-57.9545,299.25,78,70,3.94,broken clouds
46,Castro,BR,-24.7911,-50.0119,295.29,49,92,1.96,overcast clouds
47,Port Elizabeth,ZA,-33.918,25.5701,294.87,88,90,2.06,overcast clouds
48,Hithadhoo,MV,-0.6,73.0833,300.28,79,100,4.96,overcast clouds
49,Almaznyy,RU,48.0448,40.045,270.23,58,100,7.73,overcast clouds
50,Avarua,CK,-21.2078,-159.775,296.18,94,75,2.57,heavy intensity rain
51,Quelimane,MZ,-17.8786,36.8883,301.12,69,0,6.17,clear sky
52,Pimentel,PE,-6.8367,-79.9342,296.31,64,0,7.72,clear sky
53,Sayat,TM,38.7839,63.8803,276.08,84,99,3.42,overcast clouds
54,Barrow,US,71.2906,-156.7887,248.16,77,1,6.17,clear sky
55,Sao Joao Da Barra,BR,-21.6403,-41.0511,297.76,89,88,10.0,heavy intensity rain
56,Tessalit,ML,20.1986,1.0114,294.13,9,14,3.99,few clouds
57,Catuday,PH,16.2923,119.8062,298.18,74,80,4.48,broken clouds
58,Suntar,RU,62.1444,117.6319,246.59,95,100,2.93,overcast clouds
59,Katsuura,JP,35.1333,140.3,284.21,62,80,6.69,broken clouds
60,Aosta,IT,45.7667,7.4167,271.43,72,5,0.89,clear sky
61,Tilichiki,RU,60.4667,166.1,251.0,81,100,7.9,overcast clouds
62,Uxbridge,US,42.0773,-71.6295,278.9,56,3,0.89,clear sky
63,Tuktoyaktuk,CA,69.4541,-133.0374,252.15,77,90,8.23,light snow
64,Mar Del Plata,AR,-38.0023,-57.5575,296.16,86,75,1.34,broken clouds
65,Gizo,SB,-8.103,156.8419,302.29,74,67,2.85,broken clouds
66,Dingle,PH,10.9995,122.6711,297.23,92,92,3.57,overcast clouds
67,Isangel,VU,-19.55,169.2667,301.91,76,100,4.07,overcast clouds
68,Alice Springs,AU,-23.7,133.8833,299.9,28,26,4.63,scattered clouds
69,Bluff,NZ,-46.6,168.3333,290.26,71,26,2.13,scattered clouds
70,Husavik,IS,66.0449,-17.3389,278.1,79,95,6.12,overcast clouds
71,The Hammocks,US,25.6715,-80.4445,300.16,77,1,5.14,clear sky
72,Sibolga,ID,1.7427,98.7792,297.27,91,100,0.53,overcast clouds
73,Rusape,ZW,-18.5278,32.1284,290.98,73,42,2.1,scattered clouds
74,Hanover,DE,52.3705,9.7332,281.95,95,90,4.12,light intensity drizzle
75,Xining,CN,36.6167,101.7667,267.4,29,0,0.87,clear sky
76,Hermanus,ZA,-34.4187,19.2345,291.43,88,62,3.4,broken clouds
77,Agirish,RU,61.9247,63.0231,261.16,90,98,2.17,overcast clouds
78,Bredy,RU,52.4153,60.3411,259.09,86,7,2.28,clear sky
79,Male,MV,4.1748,73.5089,300.12,89,75,3.6,broken clouds
80,Rovaniemi,FI,66.5,25.7167,269.82,100,90,3.09,fog
81,Bambous Virieux,MU,-20.3428,57.7575,297.29,88,75,7.72,light intensity shower rain
82,Lompoc,US,34.6391,-120.4579,291.55,57,1,6.69,clear sky
83,Cape Town,ZA,-33.9258,18.4232,292.38,79,20,0.89,few clouds
84,Byron Bay,AU,-28.65,153.6167,297.14,83,97,3.88,overcast clouds
85,Victoria,HK,22.2855,114.1577,291.66,71,53,0.89,broken clouds
86,Fuling,CN,29.7022,107.3919,283.03,90,98,0.95,overcast clouds
87,Gat,IL,31.61,34.7642,295.04,33,100,0.78,overcast clouds
88,Esperance,AU,-33.8667,121.9,286.06,53,68,1.96,broken clouds
89,Bara,NG,10.3744,10.7288,296.03,26,86,3.59,overcast clouds
90,Bubaque,GW,11.2833,-15.8333,300.49,73,21,5.93,few clouds
91,Chateauroux,FR,46.8167,1.7,282.15,93,90,1.54,overcast clouds
92,Constitucion,CL,-35.3333,-72.4167,287.57,62,1,8.36,clear sky
93,Mchinji,MW,-13.7984,32.8802,293.26,56,0,2.05,clear sky
94,Hamada,JP,34.8833,132.0833,281.16,70,85,4.04,light rain
95,Luchenza,MW,-16.0069,35.3095,298.36,47,88,1.31,overcast clouds
96,Pevek,RU,69.7008,170.3133,237.08,96,13,0.69,few clouds
97,Cabo San Lucas,MX,22.8909,-109.9124,299.55,66,20,2.06,few clouds
98,Yelizovo,RU,53.1873,158.3805,271.23,74,75,1.79,broken clouds
99,Nishihara,JP,26.1842,127.7558,292.75,78,75,4.12,mist
100,Ponta Do Sol,PT,32.6667,-17.1,291.49,76,46,0.76,scattered clouds
101,Kodiak,US,57.79,-152.4072,264.42,57,1,15.43,clear sky
102,Tiksi,RU,71.6872,128.8694,244.85,100,100,1.29,overcast clouds
103,Pisco,PE,-13.7,-76.2167,294.18,83,20,8.23,few clouds
104,Mikhaylovka,RU,50.06,43.2379,267.47,61,89,5.28,overcast clouds
105,Betare Oya,CM,5.6,14.0833,295.85,32,79,2.25,broken clouds
106,Rosetta,EG,31.4044,30.4164,289.05,64,100,3.02,overcast clouds
107,Laguna,US,38.421,-121.4238,285.88,85,90,1.34,light rain
108,Atuona,PF,-9.8,-139.0333,299.32,78,15,8.48,few clouds
109,Ingham,US,42.6,-84.3833,280.12,55,1,3.6,clear sky
110,Birao,CF,10.2849,22.7882,295.47,30,78,2.62,broken clouds
111,Hobart,AU,-42.8794,147.3294,290.52,62,20,1.79,few clouds
112,Half Moon Bay,US,37.4636,-122.4286,287.1,89,90,2.24,light rain
113,Batemans Bay,AU,-35.7167,150.1833,295.48,61,2,1.83,clear sky
114,Thompson,CA,55.7435,-97.8558,257.24,78,90,0.0,light snow
115,Dikson,RU,73.5069,80.5464,246.02,95,96,6.75,overcast clouds
116,Bredasdorp,ZA,-34.5322,20.0403,288.86,86,100,1.67,overcast clouds
117,Belyy Yar,RU,53.6039,91.3903,265.09,79,40,2.0,light shower snow
118,Festus,US,38.2206,-90.396,285.2,46,0,3.38,clear sky
119,Kindu,CD,-2.95,25.95,294.87,92,100,0.41,overcast clouds
120,Lodwar,KE,3.1191,35.5973,301.35,41,100,8.55,overcast clouds
121,Lorengau,PG,-2.0226,147.2712,301.46,82,100,6.83,overcast clouds
122,Port Moresby,PG,-9.4431,147.1797,298.83,89,75,2.57,broken clouds
123,Nikolskoye,RU,59.7035,30.7861,268.93,99,100,1.47,light snow
124,Harlingen,US,26.1906,-97.6961,294.12,56,90,4.63,overcast clouds
125,Quatre Cocos,MU,-20.2078,57.7625,297.21,72,89,5.44,overcast clouds
126,Yellowknife,CA,62.456,-114.3525,260.6,89,90,3.6,light snow
127,Upernavik,GL,72.7868,-56.1549,258.84,92,100,4.74,overcast clouds
128,Taltal,CL,-25.4,-70.4833,290.66,76,26,2.04,scattered clouds
129,Padang,ID,-0.9492,100.3543,298.18,93,100,0.74,light rain
130,Qaanaaq,GL,77.484,-69.3632,253.31,72,79,1.69,broken clouds
131,Saint George,US,37.1041,-113.5841,289.41,35,1,0.89,clear sky
132,Maragogi,BR,-9.0122,-35.2225,299.28,79,21,5.08,few clouds
133,Bambanglipuro,ID,-7.95,110.2833,289.6,83,96,1.62,overcast clouds
134,Ahipara,NZ,-35.1667,173.1667,294.57,92,100,3.25,moderate rain
135,Lensk,RU,60.7253,114.9278,248.14,98,100,1.62,overcast clouds
136,Hit,IQ,33.6416,42.8251,287.05,40,91,3.64,overcast clouds
137,Maniitsoq,GL,65.4167,-52.9,266.28,65,7,2.27,clear sky
138,Sao Jose Da Coroa Grande,BR,-8.8978,-35.1478,299.34,79,22,4.97,few clouds
139,Kaitangata,NZ,-46.2817,169.8464,288.67,65,62,2.32,broken clouds
140,Khatanga,RU,71.9667,102.5,226.97,99,80,1.72,broken clouds
141,Inhambane,MZ,-23.865,35.3833,298.88,95,10,3.45,clear sky
142,Mwanza,TZ,-2.5167,32.9,294.33,81,97,6.21,moderate rain
143,Ambilobe,MG,-13.2,49.05,295.9,79,7,1.77,clear sky
144,Saint-Philippe,RE,-21.3585,55.7679,298.92,74,80,5.06,broken clouds
145,Butaritari,KI,3.0707,172.7902,301.27,71,74,7.32,broken clouds
146,Hasaki,JP,35.7333,140.8333,283.27,52,59,9.51,broken clouds
147,Port Alfred,ZA,-33.5906,26.891,294.83,96,100,6.36,overcast clouds
148,Severo-Kurilsk,RU,50.6789,156.125,273.81,87,80,5.57,broken clouds
149,Sainte-Suzanne,RE,-20.9061,55.6089,299.27,78,75,9.26,broken clouds
150,Benguela,AO,-12.5763,13.4055,298.37,82,91,1.81,overcast clouds
151,Kamina,CD,-8.7386,24.9906,291.63,98,100,3.63,light rain
152,Ballina,AU,-28.8667,153.5667,295.17,84,90,3.09,overcast clouds
153,Clyde River,CA,70.4692,-68.5914,254.28,92,90,4.63,light snow
154,Osypenko,UA,46.9136,36.8253,277.4,74,100,9.14,overcast clouds
155,Mtsensk,RU,53.2766,36.5733,271.03,84,98,4.87,overcast clouds
156,Vao,NC,-22.6667,167.4833,297.41,93,100,6.4,overcast clouds
157,Puerto Cabezas,NI,14.0351,-83.3888,301.13,83,75,3.09,broken clouds
158,Kruisfontein,ZA,-34.0033,24.7314,293.64,94,100,3.9,overcast clouds
159,San Juan,AR,-31.5375,-68.5364,298.23,40,7,8.66,clear sky
160,Port Lincoln,AU,-34.7333,135.8667,290.08,64,88,6.42,overcast clouds
161,Kuching,MY,1.55,110.3333,297.27,94,40,1.54,moderate rain
162,Cidreira,BR,-30.1811,-50.2056,295.09,87,1,6.23,clear sky
163,Chokurdakh,RU,70.6333,147.9167,233.89,97,98,1.04,overcast clouds
164,Honningsvag,NO,70.9821,25.9704,272.89,95,100,7.98,light snow
165,Siguiri,GN,11.6667,-9.5,297.38,15,84,0.19,broken clouds
166,Alofi,NU,-19.0595,-169.9187,301.09,69,7,5.14,clear sky
167,Nizhniy Odes,RU,63.6445,54.856,262.51,91,100,2.66,overcast clouds
168,Linjiang,CN,41.8069,126.9078,255.47,92,32,0.68,scattered clouds
169,Grand-Santi,GF,4.25,-54.3833,296.27,99,100,1.15,overcast clouds
170,Cayenne,GF,4.9333,-52.3333,297.64,92,75,1.34,moderate rain
171,Chinsali,ZM,-10.5414,32.0816,291.69,70,70,0.87,broken clouds
172,Magadan,RU,59.5667,150.8,259.0,95,100,4.93,light snow
173,Nome,US,64.5011,-165.4064,248.19,64,1,3.09,clear sky
174,Mana,GF,5.6592,-53.7767,297.92,92,100,4.74,light rain
175,Muros,ES,42.7762,-9.0603,287.5,96,68,2.8,broken clouds
176,Bodden Town,KY,19.2833,-81.25,302.15,79,20,2.24,few clouds
177,Dalkeith,GB,55.8934,-3.0638,285.42,81,98,3.13,light rain
178,Dunedin,NZ,-45.8742,170.5036,289.56,62,62,2.6,broken clouds
179,Ialibu,PG,-6.2821,143.9935,288.5,83,100,0.53,overcast clouds
180,Rosario,AR,-32.9468,-60.6393,295.1,88,20,2.06,light rain
181,Kapaa,US,22.0752,-159.319,300.33,72,75,0.89,broken clouds
182,Aykhal,RU,66.0,111.5,228.38,100,98,2.72,overcast clouds
183,Preobrazheniye,RU,42.9019,133.9064,264.33,54,9,6.43,clear sky
184,Lata,PT,40.1629,-8.3327,288.11,80,12,1.94,few clouds
185,Kupang,ID,-10.1667,123.5833,298.47,100,40,0.51,scattered clouds
186,Kewanee,US,41.2456,-89.9248,282.47,47,51,6.81,broken clouds
187,College,US,64.8569,-147.8028,250.49,68,75,0.0,light snow
188,Pihani,IN,27.6333,80.2,286.28,54,1,1.31,clear sky
189,Ilulissat,GL,69.2167,-51.1,266.16,68,90,4.12,overcast clouds
190,Banepa,NP,27.6298,85.5214,277.33,93,20,1.03,few clouds
191,Coruripe,BR,-10.1256,-36.1756,299.38,77,55,5.91,broken clouds
192,Wilmington,US,34.2257,-77.9447,285.32,55,1,3.09,clear sky
193,Touros,BR,-5.1989,-35.4608,301.65,76,8,6.97,clear sky
194,Saldanha,ZA,-33.0117,17.9442,290.18,90,100,5.3,overcast clouds
195,Juxtlahuaca,MX,17.4294,-99.1467,299.88,49,25,0.57,scattered clouds
196,Namatanai,PG,-3.6667,152.4333,302.46,68,94,2.09,overcast clouds
197,Inhuma,BR,-6.6683,-41.7078,301.79,36,88,2.56,overcast clouds
198,Los Llanos De Aridane,ES,28.6585,-17.9182,290.01,74,20,4.47,few clouds
199,Tuatapere,NZ,-46.1333,167.6833,290.27,54,54,2.12,broken clouds
200,Belaya Gora,RU,68.5333,146.4167,233.26,98,86,0.55,overcast clouds
201,Kirkenaer,NO,60.4564,12.0582,273.96,99,100,0.69,light snow
202,Hami,CN,42.8,93.45,267.7,44,30,1.87,scattered clouds
203,Viedma,AR,-40.8135,-62.9967,296.48,17,62,8.18,broken clouds
204,Yarada,IN,17.65,83.2667,296.02,80,33,4.65,scattered clouds
205,Comendador,DO,18.8775,-71.7028,296.89,68,30,2.43,scattered clouds
206,Huarmey,PE,-10.0681,-78.1522,294.52,78,82,3.8,broken clouds
207,Yumen,CN,40.2833,97.2,265.93,38,0,7.58,clear sky
208,Filotion,GR,37.05,25.5,286.43,76,84,1.34,broken clouds
209,Yerbogachen,RU,61.2767,108.0108,233.39,98,33,1.85,scattered clouds
210,Kosice,SK,48.6667,21.3333,275.06,82,0,8.75,clear sky
211,Fukue,JP,32.6881,128.8419,281.5,66,56,9.32,broken clouds
212,Mizdah,LY,31.4451,12.9801,282.19,60,72,3.48,broken clouds
213,Deputatskiy,RU,69.3,139.9,236.81,100,97,0.59,overcast clouds
214,Vanavara,RU,60.34,102.2797,233.27,99,38,1.38,scattered clouds
215,Finschhafen,PG,-6.6024,147.8681,301.9,72,99,1.33,moderate rain
216,Lagoa,PT,39.05,-27.9833,287.45,53,100,10.09,overcast clouds
217,Petushki,RU,55.9264,39.461,265.54,93,85,3.06,overcast clouds
218,Pirapemas,BR,-3.7267,-44.2233,300.15,72,90,2.76,overcast clouds
219,Mecca,SA,21.4267,39.8261,295.19,62,44,1.26,scattered clouds
220,Staunton,US,38.1496,-79.0717,279.04,39,1,2.06,clear sky
221,Blagoyevo,RU,63.3667,47.9167,257.41,94,62,2.34,broken clouds
222,Wattegama,LK,6.7989,81.4808,295.78,93,100,1.8,overcast clouds
223,Methven,NZ,-43.6333,171.65,290.94,69,79,0.89,broken clouds
224,Porto Novo,BJ,6.4965,2.6036,302.05,81,30,2.94,scattered clouds
225,Ankazobe,MG,-18.3167,47.1167,288.38,79,81,3.15,broken clouds
226,Pechenga,RU,69.5259,31.1703,270.63,93,72,5.05,broken clouds
227,Wageningen,NL,51.9667,5.6667,284.23,99,90,4.63,mist
228,Boyolangu,ID,-8.1181,111.8935,298.41,88,83,1.91,broken clouds
229,Acapulco,MX,16.8634,-99.8901,303.05,70,1,3.6,clear sky
230,Maceio,BR,-9.6658,-35.7353,299.84,83,20,3.09,few clouds
231,Karaidel,RU,55.8337,56.9069,259.7,95,88,1.17,overcast clouds
232,Salalah,OM,17.0151,54.0924,296.2,38,0,4.12,clear sky
233,Arroyo,ES,41.6096,-4.7969,282.7,87,90,2.57,fog
234,Mount Gambier,AU,-37.8333,140.7667,294.1,64,31,6.17,scattered clouds
235,Tanabe,JP,33.7333,135.3667,281.72,73,17,6.05,few clouds
236,Neryungri,RU,56.6709,124.6491,241.29,97,97,0.75,overcast clouds
237,Bilma,NE,18.6853,12.9164,291.89,11,17,3.96,few clouds
238,Resistencia,AR,-27.4606,-58.9839,303.18,51,0,5.14,clear sky
239,Igrim,RU,63.1906,64.4162,255.64,99,77,0.98,broken clouds
240,Ola,RU,59.5833,151.2833,259.34,91,100,4.98,light snow
241,Yining,CN,29.0361,114.5636,280.79,90,57,0.67,broken clouds
242,Qujing,CN,25.4833,103.7833,279.05,94,100,1.71,overcast clouds
243,Korop,UA,51.5664,32.9586,275.23,82,100,3.95,overcast clouds
244,Manggar,ID,-2.8833,108.2667,298.78,89,95,3.61,overcast clouds
245,Pangnirtung,CA,66.1451,-65.7125,252.8,70,56,3.37,broken clouds
246,Jha Jha,IN,24.7667,86.3667,286.95,46,0,1.41,clear sky
247,Tual,ID,-5.6667,132.75,302.04,74,97,4.84,overcast clouds
248,Chuy,UY,-33.6971,-53.4616,293.48,76,0,5.81,clear sky
249,Leirvik,NO,59.7798,5.5005,279.38,81,100,4.4,overcast clouds
250,Aklavik,CA,68.2191,-135.0107,253.61,90,100,9.75,overcast clouds
251,Ginda,IN,30.6945,78.4932,278.28,28,92,2.82,overcast clouds
252,Fare,PF,-16.7,-151.0167,300.29,74,83,4.9,light rain
253,Dumai,ID,1.6833,101.45,295.42,99,87,1.39,overcast clouds
254,Aleksandrov Gay,RU,50.147,48.5704,267.41,62,5,3.56,clear sky
255,Adre,TD,13.4667,22.2,294.48,20,80,4.5,broken clouds
256,Aswan,EG,24.0934,32.907,298.76,44,0,7.72,clear sky
257,Plasy,CZ,49.9345,13.3904,276.81,99,100,4.09,overcast clouds
258,Talcahuano,CL,-36.7167,-73.1167,288.97,59,0,8.23,clear sky
259,Lyubech,UA,51.7026,30.6569,273.18,87,100,2.54,light snow
260,Nanortalik,GL,60.1432,-45.2371,267.42,78,27,2.23,scattered clouds
261,Zhaozhou,CN,45.6833,125.3167,256.43,88,52,3.3,broken clouds
262,Paamiut,GL,61.994,-49.6678,261.4,78,1,2.9,clear sky
263,Warrnambool,AU,-38.3833,142.4833,296.38,34,55,5.51,broken clouds
264,Kavaratti,IN,10.5669,72.642,300.42,73,91,1.33,overcast clouds
265,Koslan,RU,63.4564,48.8989,256.22,95,85,2.03,overcast clouds
266,Vila Velha,BR,-20.3297,-40.2925,300.12,87,0,4.47,light rain
267,Sile,TR,41.1754,29.6133,288.26,73,98,3.35,light rain
268,Juegang,CN,32.3174,121.1855,276.43,69,3,3.61,clear sky
269,Port Blair,IN,11.6667,92.75,299.32,73,66,5.74,broken clouds
270,Port Macquarie,AU,-31.4333,152.9167,296.42,60,1,4.54,clear sky
271,Camargo,MX,27.6667,-105.1667,294.14,26,1,2.9,clear sky
272,Sao Filipe,CV,14.8961,-24.4956,296.98,72,91,2.55,overcast clouds
273,Pauini,BR,-7.7136,-66.9764,297.34,98,89,1.48,overcast clouds
274,Vestmanna,FO,62.1564,-7.1664,277.66,81,90,3.6,overcast clouds
275,Ancud,CL,-41.8697,-73.8203,287.83,69,38,4.18,scattered clouds
276,Koumac,NC,-20.5667,164.2833,297.83,91,100,2.91,moderate rain
277,Nioro,GM,13.35,-15.75,297.62,45,59,2.47,broken clouds
278,Lincoln,US,40.8,-96.667,285.84,27,1,2.68,clear sky
279,Aksu,CN,41.1231,80.2644,266.04,75,11,0.63,few clouds
280,Vilhena,BR,-12.7406,-60.1458,295.27,94,75,2.57,heavy intensity rain
281,The Pas,CA,53.8251,-101.2541,264.16,92,90,1.03,overcast clouds
282,Jishui,CN,33.7333,115.4,274.61,54,0,2.8,clear sky
283,Hofn,IS,64.2539,-15.2082,276.96,90,100,1.03,overcast clouds
284,Alyangula,AU,-13.8483,136.4192,300.08,94,86,0.0,overcast clouds
285,Kahului,US,20.8947,-156.47,300.16,76,40,9.26,scattered clouds
286,Vaitape,PF,-16.5167,-151.75,300.36,72,43,4.54,light rain
287,Waipawa,NZ,-41.4122,175.5153,289.78,76,99,4.08,overcast clouds
288,Vigrestad,NO,58.5667,5.7,279.82,89,100,6.13,overcast clouds
289,Maumere,ID,-8.6199,122.2111,300.8,78,100,1.34,overcast clouds
290,Bac Lieu,VN,9.285,105.7244,296.8,88,88,2.28,overcast clouds
291,Coihaique,CL,-45.5752,-72.0662,286.12,58,75,2.57,broken clouds
292,Mabaruma,GY,8.2,-59.7833,295.88,99,100,0.98,overcast clouds
293,Vila,PT,42.0304,-8.1588,281.44,91,30,1.83,scattered clouds
294,Inverell,AU,-29.7833,151.1167,295.43,67,0,0.89,clear sky
295,Manadhoo,MV,5.7667,73.3833,301.1,75,100,8.01,overcast clouds
296,Frederico Westphalen,BR,-27.3592,-53.3944,297.84,55,54,1.33,light rain
297,Luganville,VU,-15.5333,167.1667,300.83,86,100,6.24,moderate rain
298,Luderitz,NA,-26.6481,15.1594,289.61,83,2,4.82,clear sky
299,Sisimiut,GL,66.9395,-53.6735,264.17,86,60,4.47,broken clouds
300,Junagarh,IN,19.8667,82.9333,289.01,74,36,0.65,scattered clouds
301,Burnie,AU,-41.0667,145.9167,290.33,64,71,4.96,broken clouds
302,Manerbio,IT,45.3558,10.1352,278.96,91,0,2.06,clear sky
303,Zhuhai,CN,22.2769,113.5678,291.51,68,20,9.77,few clouds
304,Berlevag,NO,70.8578,29.0864,273.15,74,75,5.14,broken clouds
305,Walvis Bay,NA,-22.9575,14.5053,289.68,82,0,2.06,clear sky
306,Fagersta,SE,60.0042,15.7932,272.73,94,91,1.63,overcast clouds
307,Puerto Del Rosario,ES,28.5004,-13.8627,291.01,88,20,3.09,few clouds
308,Faanui,PF,-16.4833,-151.75,300.35,72,42,4.47,light rain
309,Mount Isa,AU,-20.7333,139.5,303.02,16,8,3.09,clear sky
310,Flinders,AU,-34.5833,150.8552,293.04,71,13,2.08,few clouds
311,Fortuna,US,40.5982,-124.1573,284.63,77,40,2.24,scattered clouds
312,Kiama,AU,-34.6833,150.8667,293.15,70,17,0.89,few clouds
313,Margate,GB,51.3813,1.3862,284.99,83,98,0.89,overcast clouds
314,Codrington,AU,-38.2667,141.9667,302.05,23,63,7.2,broken clouds
315,Arlit,NE,18.7369,7.3853,294.03,8,87,3.21,overcast clouds
316,Maryville,US,35.7565,-83.9705,281.89,53,1,0.89,clear sky
317,Tautira,PF,-17.7333,-149.15,303.16,79,87,4.77,light rain
318,Pulgaon,IN,20.7333,78.3333,289.42,59,50,2.3,scattered clouds
319,Ilo,PE,-17.6394,-71.3375,292.89,84,75,2.66,broken clouds
320,Araouane,ML,18.9048,-3.5265,294.85,9,32,4.08,scattered clouds
321,Naze,JP,28.3667,129.4833,288.66,69,81,8.15,broken clouds
322,South Sioux City,US,42.4739,-96.4136,280.12,49,1,5.66,clear sky
323,Taraza,CO,7.5836,-75.4007,297.69,93,98,0.72,overcast clouds
324,Bandarbeyla,SO,9.4942,50.8122,297.82,77,3,9.71,clear sky
325,Csurgo,HU,46.2531,17.1006,274.94,72,16,4.92,few clouds
326,Cessnock,AU,-32.8333,151.35,295.1,53,27,0.45,scattered clouds
327,Worland,US,44.0169,-107.9554,283.79,66,1,1.79,clear sky
328,Amarante Do Maranhao,BR,-5.5667,-46.7422,296.54,93,99,0.12,light rain
329,Bethanien,NA,-26.502,17.1583,294.88,23,12,2.32,few clouds
330,Nantucket,US,41.2835,-70.0995,279.89,54,1,5.66,clear sky
331,Koulikoro,ML,14.0,-7.75,295.83,11,31,3.18,scattered clouds
332,Sioux Lookout,CA,50.1001,-91.917,274.36,74,40,2.06,scattered clouds
333,Teguise,ES,29.0605,-13.564,287.27,82,20,2.57,few clouds
334,Talnakh,RU,69.4865,88.3972,240.98,83,79,0.58,broken clouds
335,Taunggyi,MM,20.7833,97.0333,287.12,84,40,0.83,scattered clouds
336,Magnolia,US,33.2671,-93.2393,286.97,54,0,1.77,clear sky
337,Vestmannaeyjar,IS,63.4427,-20.2734,279.73,70,99,9.22,light rain
338,Hirara,JP,24.8,125.2833,293.3,83,75,8.75,broken clouds
339,Hailar,CN,49.2,119.7,260.6,83,100,5.69,overcast clouds
340,Adrar,MR,20.5022,-10.0711,292.79,16,43,4.79,scattered clouds
341,Northam,GB,51.0333,-4.2167,285.38,92,82,9.99,broken clouds
342,Narsaq,GL,60.9167,-46.05,266.27,79,3,1.41,clear sky
343,Mayumba,GA,-3.432,10.6554,297.78,90,92,0.53,overcast clouds
344,Aleksinac,RS,43.5417,21.7078,274.57,99,100,1.56,light snow
345,Hastings,GB,50.8552,0.5729,285.36,83,80,8.32,broken clouds
346,Shimoda,JP,34.6667,138.95,284.87,61,0,8.87,clear sky
347,Qasigiannguit,GL,68.8193,-51.1922,266.29,93,92,2.82,overcast clouds
348,Krasnozerskoye,RU,53.9828,79.2374,258.08,96,100,3.38,overcast clouds
349,Shelburne,CA,44.0787,-80.2041,276.24,73,0,9.33,clear sky
350,Lebu,CL,-37.6167,-73.65,286.69,67,4,4.0,clear sky
351,Kihei,US,20.785,-156.4656,300.16,77,40,9.26,scattered clouds
352,Goedereede,NL,51.8175,3.9806,284.27,88,93,1.34,overcast clouds
353,Vorobyevka,RU,50.6451,40.9245,269.76,57,94,5.87,overcast clouds
354,Acajutla,SV,13.5928,-89.8275,307.34,71,48,2.18,scattered clouds
355,Turan,VN,16.0678,108.2208,296.14,78,75,2.57,broken clouds
356,San Ramon,US,37.7799,-121.978,286.16,80,90,0.89,light rain
357,Hauterive,FR,46.0901,3.4459,279.31,92,96,1.2,overcast clouds
358,San Patricio,US,28.017,-97.5169,293.2,35,0,3.69,clear sky
359,Omboue,GA,-1.5746,9.2618,297.5,91,100,1.39,overcast clouds
360,Krasnyy Chikoy,RU,50.3643,108.7512,253.92,96,7,0.49,clear sky
361,Locri,IT,38.2414,16.2623,284.95,73,95,4.58,overcast clouds
362,Mangrol,IN,21.1167,70.1167,295.37,58,0,3.08,clear sky
363,Bairnsdale,AU,-37.8333,147.6167,292.43,75,1,0.45,clear sky
364,Troitskoye,RU,52.9821,84.6757,254.14,99,75,1.61,broken clouds
365,Torbay,CA,47.6666,-52.7314,283.58,93,90,14.92,light intensity drizzle
366,Shakawe,BW,-18.3667,21.85,294.4,79,98,2.64,overcast clouds
367,Praxedis Guerrero,MX,31.3667,-106.0167,291.72,32,0,0.94,clear sky
368,Catazaja,MX,17.725,-92.0167,304.62,76,4,1.98,clear sky
369,Ulaangom,MN,49.9811,92.0667,253.38,90,100,1.32,overcast clouds
370,Iqaluit,CA,63.7506,-68.5145,259.0,65,75,4.47,broken clouds
371,Hamilton,US,39.1834,-84.5333,280.81,49,1,0.89,clear sky
372,Villa Carlos Paz,AR,-31.4241,-64.4978,293.18,51,93,1.79,light rain
373,San Quintin,MX,30.4833,-115.95,289.93,60,2,4.55,clear sky
374,Zhigalovo,RU,54.8097,105.1578,263.0,95,100,2.07,overcast clouds
375,Tomatlan,MX,19.9333,-105.25,301.66,65,6,3.7,clear sky
376,Skaelskor,DK,55.2506,11.2935,280.42,98,100,3.66,overcast clouds
377,Anadyr,RU,64.75,177.4833,238.43,66,75,3.58,mist
378,Aden,YE,12.7794,45.0367,298.83,62,0,6.79,clear sky
379,Doka,SD,13.5167,35.7667,297.14,25,10,4.2,clear sky
380,Urusha,RU,54.05,122.9,253.24,96,100,0.78,overcast clouds
381,Okhotsk,RU,59.3833,143.3,255.84,75,100,7.71,overcast clouds
382,Burns Lake,CA,54.2331,-125.7533,265.83,84,92,0.62,overcast clouds
383,La Rioja,ES,42.25,-2.5,276.51,57,55,2.59,broken clouds
384,Monrovia,LR,6.3005,-10.7969,299.02,82,8,2.99,clear sky
385,Havelock,US,34.8791,-76.9013,284.14,64,1,0.45,clear sky
386,Micheweni,TZ,-4.9667,39.8333,298.67,84,47,3.05,moderate rain
387,Semey,KZ,50.4111,80.2275,261.79,93,100,2.93,overcast clouds
388,Ouadda,CF,8.0777,22.4007,296.14,33,76,2.61,broken clouds
389,Whitehorse,CA,60.7161,-135.0538,253.58,70,90,2.68,light snow
390,Hudson Bay,CA,52.85,-102.3842,266.68,96,98,1.57,overcast clouds
391,Tasiilaq,GL,65.6145,-37.6368,278.24,80,100,7.58,light rain
392,Port Hardy,CA,50.6996,-127.4199,276.35,100,75,1.54,light shower snow
393,Banyo,CM,6.75,11.8167,293.94,28,64,1.37,broken clouds
394,Miri,MY,4.4148,114.0089,297.23,94,40,0.0,scattered clouds
395,Dubti,ET,11.7361,41.0853,296.16,57,2,4.14,clear sky
396,Jiuquan,CN,39.7432,98.5174,265.07,38,0,1.16,clear sky
397,Mastic Beach,US,40.7668,-72.8521,280.92,46,1,1.79,clear sky
398,Shubarkuduk,KZ,49.1447,56.4872,264.58,69,0,4.7,clear sky
399,Fairbanks,US,64.8378,-147.7164,250.5,69,1,1.54,light snow
400,Partyzany,UA,46.3314,34.7503,279.5,83,100,9.12,overcast clouds
401,Grand Gaube,MU,-20.0064,57.6608,297.37,77,88,1.34,overcast clouds
402,Sur,OM,22.5667,59.5289,294.46,63,6,2.73,clear sky
403,Noshiro,JP,40.2039,140.0242,272.67,66,100,13.54,light snow
404,Kibondo,TZ,-3.5864,30.7203,288.72,99,83,0.89,moderate rain
405,Libreville,GA,0.3925,9.4537,300.16,89,20,1.03,few clouds
406,Aquiraz,BR,-3.9014,-38.3911,303.27,63,63,5.65,broken clouds
407,Beringovskiy,RU,63.05,179.3167,245.91,99,100,5.98,overcast clouds
408,Houma,US,29.5958,-90.7195,289.15,68,1,3.6,clear sky
409,Zabaykalsk,RU,49.6333,117.3167,257.65,90,97,1.96,overcast clouds
410,Belmonte,BR,-15.8631,-38.8828,298.43,86,84,3.51,broken clouds
411,Ottawa,CA,45.4112,-75.6981,277.96,56,40,0.89,scattered clouds
412,Tateyama,JP,34.9833,139.8667,284.16,54,59,9.18,broken clouds
413,Sambava,MG,-14.2667,50.1667,296.89,84,89,3.5,light rain
414,Paracuru,BR,-3.41,-39.0306,301.16,77,68,5.61,broken clouds
415,Olafsvik,IS,64.8945,-23.7142,278.64,89,99,8.82,light rain
416,Dukat,RU,62.55,155.55,253.06,99,100,2.38,overcast clouds
417,Batagay,RU,67.6333,134.6333,231.57,100,93,0.57,overcast clouds
418,Moose Factory,CA,51.2585,-80.6094,268.15,93,90,0.0,light snow
419,Nikolayevsk-Na-Amure,RU,53.1406,140.73,268.8,94,100,4.29,light snow
420,Kitob,UZ,39.0843,66.8332,276.47,73,100,0.49,overcast clouds
421,Stokmarknes,NO,68.5646,14.9108,272.25,91,95,2.58,overcast clouds
422,Ayodhya,IN,26.8,82.2,286.32,63,0,0.97,clear sky
423,Tahoua,NE,14.8888,5.2692,296.14,17,0,2.06,clear sky
424,Eregli,TR,37.5133,34.0467,281.31,43,94,1.3,overcast clouds
425,Srednekolymsk,RU,67.45,153.6833,233.58,97,98,1.05,overcast clouds
426,Hovd,MN,48.0056,91.6419,259.61,59,93,2.18,overcast clouds
427,Roald,NO,62.5833,6.1333,278.71,87,40,3.6,scattered clouds
428,Samana,DO,19.2056,-69.3369,300.13,89,37,3.88,scattered clouds
429,Meulaboh,ID,4.1363,96.1285,297.29,90,88,0.73,overcast clouds
430,Mocuba,MZ,-16.8392,36.9856,299.73,61,2,2.4,clear sky
431,Portland,US,45.5234,-122.6762,281.56,86,90,0.89,overcast clouds
432,Karratha,AU,-20.7377,116.8463,304.87,22,0,4.86,light rain
433,Jalu,LY,29.0331,21.5482,285.61,74,2,3.93,clear sky
434,Kainantu,PG,-6.2887,145.8655,290.83,94,100,0.44,moderate rain
435,Zhigansk,RU,66.7697,123.3711,235.01,99,94,3.85,overcast clouds
436,Haines Junction,CA,60.7522,-137.5108,252.12,54,99,3.6,overcast clouds
437,Katobu,ID,-4.9408,122.5276,299.49,89,100,1.27,light rain
438,Liverpool,GB,53.4106,-2.9779,285.53,81,20,2.68,few clouds
439,Kilrush,IE,52.6397,-9.4833,281.01,77,100,6.98,overcast clouds
440,Izumo,JP,35.3667,132.7667,281.12,61,75,8.23,broken clouds
441,Emba,KZ,48.8264,58.1442,262.82,80,4,5.94,clear sky
442,Kilindoni,TZ,-7.9139,39.6668,299.34,78,97,3.6,moderate rain
443,Lopukhiv,UA,48.3653,23.9638,273.05,96,100,2.23,overcast clouds
444,Klaksvik,FO,62.2266,-6.589,278.66,73,100,7.85,overcast clouds
445,Nong Phai,TH,15.9903,101.0618,295.44,77,9,2.75,clear sky
446,Westport,US,41.1415,-73.3579,281.23,45,1,1.79,clear sky
447,Thiers,FR,45.8333,3.5,279.8,95,79,1.37,broken clouds
448,Seoul,KR,37.5683,126.9778,268.84,58,0,3.09,clear sky
449,Balakhninskiy,RU,58.0106,114.2769,252.81,100,100,0.43,overcast clouds
450,Macapa,BR,0.0389,-51.0664,303.14,70,20,4.12,few clouds
451,Awjilah,LY,29.1081,21.2869,285.63,76,2,3.82,clear sky
452,Pajapan,MX,18.25,-94.7,295.24,87,55,5.06,broken clouds
453,Peniche,PT,39.3558,-9.3811,289.6,74,5,3.44,clear sky
454,Joao Camara,BR,-5.5375,-35.8197,300.73,77,9,6.33,clear sky
455,Longyearbyen,SJ,78.2186,15.6401,273.06,74,75,8.23,broken clouds
456,Umea,SE,63.8284,20.2597,274.11,93,90,3.6,overcast clouds
457,Altay,CN,47.8667,88.1167,261.41,64,86,2.4,overcast clouds
458,Elk City,US,35.412,-99.4043,291.27,15,1,8.75,clear sky
459,Along,IN,28.1667,94.7667,282.86,75,8,0.71,clear sky
460,Palauig,PH,15.435,119.9045,298.67,74,100,2.6,overcast clouds
461,Ostrovnoy,RU,68.0531,39.5131,272.2,91,100,6.91,overcast clouds
462,Shimizu,JP,43.0061,142.8847,268.57,78,38,9.26,light snow
463,Victor Harbor,AU,-35.5667,138.6167,298.26,76,59,0.89,broken clouds
464,Kemijarvi,FI,66.7131,27.4306,269.21,97,99,2.59,overcast clouds
465,Zemetchino,RU,53.4973,42.6163,267.49,71,30,4.75,scattered clouds
466,Carahue,CL,-38.7,-73.1667,289.26,62,39,2.73,scattered clouds
467,Ponta Delgada,PT,37.7333,-25.6667,286.76,67,20,4.63,few clouds
468,Tamale,GH,9.4008,-0.8393,301.74,20,93,2.6,overcast clouds
469,Falmouth,GB,50.1544,-5.0711,285.65,87,90,9.26,overcast clouds
470,Birjand,IR,32.8663,59.2211,270.41,46,0,3.09,clear sky
471,Chechat,IN,24.7667,75.8833,286.98,48,0,0.95,clear sky
472,Maningrida,AU,-12.0667,134.2667,303.92,62,61,3.54,broken clouds
473,Bengkulu,ID,-3.8004,102.2655,296.91,88,100,1.7,overcast clouds
474,Sinnamary,GF,5.3833,-52.95,298.2,90,100,4.73,overcast clouds
475,Havoysund,NO,70.9963,24.6622,273.64,98,100,4.5,light snow
476,Athmallik,IN,20.7219,84.5348,290.35,92,13,1.22,few clouds
477,Nizwa,OM,22.9333,57.5333,289.15,56,15,0.7,few clouds
478,Cam Ranh,VN,11.9214,109.1591,297.13,64,20,7.2,few clouds
479,Nichinan,JP,31.6,131.3667,282.3,71,3,3.56,clear sky
480,Berdigestyakh,RU,62.0989,126.6992,248.62,98,100,2.26,overcast clouds
481,Khlung,TH,12.4547,102.2214,294.3,81,6,3.89,clear sky
482,Kyrylivka,UA,46.3759,35.3675,279.55,83,100,11.66,overcast clouds
483,Coquimbo,CL,-29.9533,-71.3436,293.0,59,0,5.66,clear sky
484,Sweetwater,US,25.7634,-80.3731,300.16,75,20,0.45,few clouds
485,Cairns,AU,-16.9167,145.7667,305.99,69,48,3.6,scattered clouds
486,Ellisras,ZA,-23.6649,27.7443,297.71,51,100,1.59,overcast clouds
487,Sangar,RU,63.9242,127.4739,237.98,97,92,0.89,overcast clouds
488,Chaman,PK,30.9236,66.4512,278.73,27,0,2.73,clear sky
489,Sacama,EC,-3.9,-79.2667,286.16,68,90,2.06,light rain
490,Kermanshah,IR,34.3142,47.065,272.65,86,0,0.0,clear sky
491,Sola,VU,-13.8833,167.55,300.42,81,100,7.97,overcast clouds
492,Borzya,RU,50.3833,116.5167,256.72,92,98,1.43,overcast clouds
493,Kapasan,ID,-6.7773,111.3789,297.57,90,99,1.73,overcast clouds
494,Orange,US,33.7,-117.7675,294.24,56,20,0.45,few clouds
495,Leningradskiy,RU,69.3833,178.4167,238.01,91,3,1.97,clear sky
496,Tura,IN,25.5198,90.2201,286.44,77,0,1.66,clear sky
497,Vardo,NO,70.3705,31.1107,272.26,84,89,11.85,overcast clouds
498,Elat,IL,29.5581,34.9482,290.06,42,0,3.6,clear sky
499,Narasannapeta,IN,18.4167,84.05,293.59,84,26,3.35,scattered clouds
500,Sept-Iles,CA,50.2001,-66.3821,271.51,67,40,9.39,scattered clouds
501,Itarema,BR,-2.9248,-39.9167,300.17,79,38,6.89,scattered clouds
502,Pszow,PL,50.0399,18.3947,269.78,95,49,1.68,scattered clouds
503,Vanimo,PG,-2.6741,141.3028,301.15,78,100,2.48,overcast clouds
504,Beloha,MG,-25.1667,45.05,295.37,84,55,3.08,broken clouds
505,Fomboni,KM,-12.28,43.7425,300.47,74,94,6.39,overcast clouds
506,Keffi,NG,8.8486,7.8736,295.36,23,61,1.89,broken clouds
507,Davila,PH,18.4726,120.5763,293.14,74,76,11.08,broken clouds
508,Najran,SA,17.4924,44.1277,284.51,63,6,0.83,clear sky
509,Matara,LK,5.9485,80.5353,297.83,84,98,3.27,light rain
510,Necochea,AR,-38.5473,-58.7368,292.06,61,85,3.37,overcast clouds
511,Tarko-Sale,RU,64.9225,77.785,241.93,87,53,3.66,broken clouds
512,Bolivar,US,37.6145,-93.4105,284.69,43,0,4.26,clear sky
513,Wlodawa,PL,51.55,23.55,270.34,95,100,2.67,overcast clouds
514,Caravelas,BR,-17.7125,-39.2481,297.94,87,51,4.06,broken clouds
515,Marsh Harbour,BS,26.5412,-77.0636,297.9,77,4,5.02,clear sky
516,Piedecuesta,CO,6.9879,-73.0495,295.77,96,96,1.03,overcast clouds
517,Mogadishu,SO,2.0371,45.3438,299.26,83,94,8.1,overcast clouds
518,Olinda,BR,-8.0089,-34.8553,301.0,65,40,3.09,scattered clouds
519,Lakatoro,VU,-16.0999,167.4164,301.77,80,100,5.97,heavy intensity rain
520,Camacha,PT,33.0833,-16.3333,289.0,88,40,1.03,scattered clouds
521,Zmeinogorsk,RU,51.1567,82.195,258.83,99,100,1.09,light snow
522,Baker City,US,44.7749,-117.8344,279.99,68,90,4.63,overcast clouds
523,Vagur,FO,61.4732,-6.8119,278.3,92,100,7.76,overcast clouds
524,Lampa,CL,-33.2833,-70.9,295.61,38,0,6.69,clear sky
525,Coos Bay,US,43.3665,-124.2179,284.14,85,75,5.14,broken clouds
526,Ivolginsk,RU,51.7492,107.2837,256.96,78,20,1.0,few clouds
527,Muroto,JP,33.2833,134.15,282.17,59,12,5.14,few clouds
528,Andros Town,BS,24.7,-77.7667,299.13,75,2,6.42,clear sky
529,Faya,SA,18.3851,42.4509,282.44,44,6,1.58,clear sky
530,Rio Gallegos,AR,-51.6226,-69.2181,286.18,21,40,15.43,scattered clouds
531,Eirunepe,BR,-6.6603,-69.8736,298.04,92,81,1.34,broken clouds
532,Dumra,IN,26.5667,85.5167,286.7,52,0,1.75,clear sky
533,Comodoro Rivadavia,AR,-45.8667,-67.5,290.07,55,75,2.06,light rain
534,Bulgan,MN,48.8125,103.5347,264.3,30,56,2.07,broken clouds
535,Bonavista,CA,48.6499,-53.1147,280.44,73,100,13.6,overcast clouds
536,Norman Wells,CA,65.282,-126.8329,254.17,71,75,5.66,light snow
537,Yatou,CN,37.15,122.3833,271.22,63,27,2.97,scattered clouds
538,Cururupu,BR,-1.8283,-44.8683,299.37,84,58,2.44,broken clouds
539,Plattsburgh,US,44.6995,-73.4529,279.27,36,1,0.89,clear sky
540,Gushikawa,JP,26.3544,127.8686,292.72,79,90,7.2,mist
541,Gornopravdinsk,RU,60.05,69.9,263.35,94,100,3.04,overcast clouds
542,Pattani,TH,6.75,100.4167,297.99,92,100,1.41,overcast clouds
543,Loukhi,RU,66.0764,33.0381,269.22,98,100,1.65,light snow
544,Dhidhdhoo,MV,6.8833,73.1,300.56,76,89,2.15,overcast clouds
545,Banjar,ID,-8.19,114.9675,299.07,89,92,2.01,light rain
546,Anchorage,US,61.2181,-149.9003,261.17,53,1,7.72,clear sky
547,San Juan Capistrano,US,33.5017,-117.6626,294.36,63,2,1.79,clear sky
548,Mnogovershinnyy,RU,53.9353,139.9242,266.12,94,100,5.59,snow
549,Luebo,CD,-5.35,21.4167,295.09,98,100,0.5,overcast clouds
550,Pouebo,NC,-20.4,164.5667,298.14,91,100,3.84,moderate rain
551,Kalemie,CD,-5.9475,29.1947,293.87,92,89,2.28,moderate rain
552,Bima,ID,-8.4667,118.7167,299.46,89,100,1.23,light rain
553,Souillac,MU,-20.5167,57.5167,297.36,88,75,7.72,light intensity shower rain
554,Wamba,NG,8.9333,8.6,297.48,21,95,2.19,overcast clouds
555,Marathon,US,44.9,-89.7668,275.89,60,1,2.06,light rain
556,Labuhan,ID,-6.8844,112.2051,299.03,86,95,4.08,overcast clouds
557,Kushmurun,KZ,52.4503,64.6311,256.79,95,10,1.47,clear sky
558,Desnogorsk,RU,54.1508,33.2815,271.81,95,100,3.06,overcast clouds
559,Senden,DE,48.3244,10.0444,277.65,89,100,0.89,overcast clouds
560,Tezu,IN,27.9167,96.1667,287.68,53,29,1.66,scattered clouds
561,General Roca,AR,-39.0333,-67.5833,296.83,21,15,11.69,few clouds
562,Omsukchan,RU,62.5333,155.8,252.94,98,100,3.09,overcast clouds
563,Fort Nelson,CA,58.8053,-122.7002,255.92,85,90,1.54,light snow
564,Makakilo City,US,21.3469,-158.0858,300.33,60,75,6.17,broken clouds
565,Gamba,GA,-2.65,10.0,297.3,93,99,1.19,overcast clouds
566,Khash,IR,28.2211,61.2158,279.46,33,0,1.56,clear sky
567,Bowmore,US,34.9421,-79.3031,284.1,45,1,2.57,clear sky
568,Ojinaga,MX,29.5667,-104.4167,294.49,30,1,1.54,clear sky
569,Sorland,NO,67.667,12.6934,275.77,97,95,7.77,overcast clouds
570,San Nicolas,PH,18.1725,120.5953,293.1,88,20,1.03,few clouds
571,Pacific Grove,US,36.6177,-121.9166,287.68,70,100,3.13,overcast clouds
572,Uvat,RU,59.1433,68.8953,264.23,95,99,3.3,light snow
573,Rocha,UY,-34.4833,-54.3333,294.29,74,66,3.66,broken clouds
574,Posse,BR,-14.0931,-46.3694,294.17,94,100,1.75,overcast clouds
575,Velizh,RU,55.6056,31.1967,273.58,99,100,2.71,light snow
576,Lillesand,NO,58.2488,8.3778,275.17,93,75,1.54,mist
577,Chilca,PE,-12.5211,-76.7372,294.73,88,22,3.55,few clouds
578,Zeya,RU,53.75,127.2667,252.22,84,42,0.69,scattered clouds
579,Bereda,ES,43.2686,-7.5406,281.25,100,74,0.84,broken clouds
580,Te Anau,NZ,-45.4167,167.7167,290.64,58,60,1.35,broken clouds
581,Ust-Kuyga,RU,70.0167,135.6,233.3,100,99,0.93,overcast clouds
582,Sterling,US,39.0062,-77.4286,281.55,42,1,0.0,clear sky
583,Sao Paulo Do Potengi,BR,-5.895,-35.7628,301.21,77,22,5.07,few clouds
584,Charters Towers,AU,-20.1,146.2667,301.79,50,35,6.38,scattered clouds
585,Puerto Maldonado,PE,-12.6,-69.1833,303.37,70,40,1.03,scattered clouds
586,Kirakira,SB,-10.4544,161.9205,301.87,81,96,6.52,overcast clouds
587,Qabaqcol,AZ,41.72,46.2647,280.17,79,56,0.9,broken clouds
588,Bonfim,BR,3.0833,-59.95,299.95,74,100,3.21,overcast clouds
589,Waingapu,ID,-9.6567,120.2641,300.64,78,97,0.56,overcast clouds
590,Shizunai,JP,42.3339,142.3669,272.69,61,99,15.42,light snow
591,Martapura,ID,-3.4167,114.85,298.2,100,40,1.54,light rain
592,Kieta,PG,-6.2167,155.6333,302.65,73,94,1.25,light rain
593,Krasnoselkup,RU,65.7,82.4667,246.05,92,100,2.66,overcast clouds
594,Novominskaya,RU,46.3163,38.9586,276.65,74,100,7.42,overcast clouds
595,Vostok,RU,46.4856,135.8833,256.22,96,100,3.58,light snow
596,Gustavo Diaz Ordaz,MX,26.2333,-98.5833,293.16,44,1,3.02,clear sky
597,Bhuj,IN,23.2667,69.6667,292.59,38,1,2.21,clear sky
598,Sines,PT,37.9562,-8.8698,288.31,69,0,0.89,clear sky
599,Namibe,AO,-15.1961,12.1522,295.04,77,53,2.44,broken clouds
600,Cabedelo,BR,-6.9811,-34.8339,300.52,77,12,5.77,few clouds
601,Zihuatanejo,MX,17.6333,-101.55,305.2,58,1,4.12,clear sky
602,Evanton,GB,57.6638,-4.34,285.35,86,100,4.62,overcast clouds
603,Kununurra,AU,-15.7667,128.7333,303.14,70,10,0.0,clear sky
604,Port Dover,CA,42.7834,-80.1997,279.59,70,0,11.5,clear sky
605,Marsa Matruh,EG,31.3525,27.2453,287.26,62,0,1.54,clear sky
606,Tsabong,BW,-26.0217,22.401,298.18,45,100,7.26,overcast clouds
607,Muli,MV,2.9167,73.5667,300.05,79,97,2.99,overcast clouds
608,Teluk Nibung,ID,3.001,99.8164,296.39,94,75,2.67,broken clouds
609,Pacifica,US,37.6138,-122.4869,286.89,91,90,3.13,mist
610,Orlik,RU,52.5178,99.825,253.03,92,80,1.44,broken clouds
611,Cockburn Town,TC,21.4612,-71.1419,299.13,69,40,4.12,scattered clouds
612,Jizan,SA,17.3333,42.6667,297.67,49,0,1.75,clear sky
613,Kommunisticheskiy,RU,61.6789,64.4819,260.23,98,95,1.94,overcast clouds
614,Lodja,CD,-3.4833,23.4333,294.51,96,100,0.26,overcast clouds
615,Avera,US,33.194,-82.5271,287.96,48,0,2.91,clear sky
616,Tashtagol,RU,52.7657,87.8894,264.66,94,100,3.25,light snow
617,Rio De Janeiro,BR,-22.9028,-43.2075,298.15,88,90,2.57,mist
618,Cervo,ES,43.6702,-7.4101,282.88,83,86,2.37,overcast clouds
619,Russell,US,32.3502,-85.1999,288.93,63,1,2.06,clear sky
620,Guerrero Negro,MX,27.9769,-114.0611,292.23,48,41,4.49,scattered clouds
621,Puerto Rondon,CO,6.2805,-71.1,300.0,57,83,2.62,broken clouds
622,Progreso,MX,21.2833,-89.6667,303.21,78,27,6.63,scattered clouds
623,Amboasary,MG,-25.0333,46.3833,298.06,88,18,2.23,few clouds
624,Bandar,ID,2.05,99.75,295.44,99,100,0.97,overcast clouds
625,Puri,IN,19.8,85.85,293.44,74,18,3.71,few clouds
626,Evanston,US,42.0411,-87.6901,282.01,46,35,2.24,scattered clouds
627,Chapais,CA,49.7834,-74.8492,270.03,95,100,4.95,light snow
628,Agutaya,PH,11.148,120.9417,300.18,86,98,12.47,overcast clouds
629,Kloulklubed,PW,7.0419,134.2556,299.43,80,74,6.36,broken clouds
630,Garissa,KE,-0.4536,39.6401,298.84,73,100,4.59,overcast clouds
631,Fort Abbas,PK,29.1925,72.8536,287.96,23,70,2.62,broken clouds
632,Oistins,BB,13.0667,-59.5333,300.2,83,75,8.23,broken clouds
633,Borba,BR,-4.3878,-59.5939,297.56,98,100,1.27,light rain
634,Henties Bay,NA,-22.116,14.2845,289.18,88,0,2.9,clear sky
635,Portales,US,34.1862,-103.3344,290.7,14,0,2.24,clear sky
636,Kushiro,JP,42.975,144.3747,272.68,55,20,7.72,few clouds
637,Polson,US,47.6936,-114.1632,275.77,70,100,2.68,overcast clouds
638,Sobolevo,RU,54.4299,31.8996,273.04,96,100,3.43,overcast clouds
639,Shache,CN,38.4167,77.2406,267.18,64,18,1.42,few clouds
640,Luena,AO,-11.7833,19.9167,291.73,90,99,1.64,overcast clouds
641,Taoudenni,ML,22.6783,-3.9836,293.08,17,57,6.32,broken clouds
642,Mwinilunga,ZM,-11.7358,24.4293,291.43,84,95,1.41,overcast clouds
643,Suihua,CN,46.6406,126.9969,251.35,94,63,2.5,broken clouds
644,Kamenka,RU,51.3223,42.7678,265.23,66,55,5.4,broken clouds
645,Niamey,NE,13.5137,2.1098,298.31,19,0,1.03,clear sky
646,Okotoks,CA,50.7289,-113.9828,272.68,72,3,0.89,clear sky
647,Klyuchi,RU,52.2667,79.1667,255.93,95,62,2.9,broken clouds
648,Chapleau,CA,47.8405,-83.4034,273.2,74,1,5.14,clear sky
649,Talalayivka,UA,50.9578,31.9209,276.17,82,100,3.53,overcast clouds
650,Atar,MR,20.5169,-13.0499,294.72,16,82,3.88,broken clouds
651,Jacarau,BR,-6.6122,-35.2928,297.64,81,18,3.97,few clouds
652,Raton,US,36.9034,-104.4391,290.49,3,1,7.72,clear sky
653,Svetlyy,RU,54.675,20.1347,272.18,95,100,3.83,overcast clouds
654,Kysyl-Syr,RU,63.8986,122.7617,242.21,98,100,2.93,overcast clouds
655,Foso,GH,5.7012,-1.2866,298.06,91,87,1.35,overcast clouds
656,Usogorsk,RU,63.4106,48.6872,257.48,93,72,2.24,broken clouds
657,Jimani,DO,18.4917,-71.8502,302.09,60,14,1.07,few clouds
658,Vanino,RU,49.0869,140.2543,266.7,70,100,7.31,overcast clouds
659,Kutum,SD,14.2,24.6667,291.71,33,47,2.67,scattered clouds
660,Raudeberg,NO,61.9875,5.1352,279.52,86,98,1.79,overcast clouds
661,Aksarka,RU,66.5606,67.7975,250.09,100,90,1.04,overcast clouds
662,Kimbe,PG,-5.5502,150.1429,298.83,92,100,0.58,overcast clouds
663,Basco,PH,20.4487,121.9702,297.58,67,53,10.64,broken clouds
664,Eureka,US,40.8021,-124.1637,284.78,92,100,0.89,overcast clouds
665,Port-Gentil,GA,-0.7193,8.7815,299.51,81,99,2.76,overcast clouds
666,Pokrovskoye,RU,47.4157,38.8971,274.94,67,100,8.1,overcast clouds
667,Port Shepstone,ZA,-30.7414,30.455,296.31,90,100,2.2,overcast clouds
668,Horki,BY,54.2861,30.9842,273.79,97,100,3.1,light snow
669,Snyder,US,32.7179,-100.9176,294.23,11,1,6.17,clear sky
670,Buraydah,SA,26.326,43.975,283.4,32,73,2.47,broken clouds
671,Jiexiu,CN,37.0244,111.9125,271.65,37,0,1.67,clear sky
672,Chebarkul,RU,54.9749,60.3633,260.96,84,61,2.26,broken clouds
673,Tubuala,PA,9.5167,-79.0333,301.21,80,98,5.76,overcast clouds
674,Kusa,RU,55.3383,59.4406,258.07,95,90,1.19,overcast clouds
675,Daru,PG,-9.0763,143.2092,299.35,87,100,5.56,overcast clouds
676,Roebourne,AU,-20.7833,117.1333,305.34,22,0,4.72,light rain
677,Isilkul,RU,54.9109,71.2728,261.33,90,95,4.66,overcast clouds
678,San Andres,CO,12.5847,-81.7006,301.16,78,75,3.6,broken clouds
679,Tymovskoye,RU,50.8456,142.655,265.58,96,100,2.22,light snow
680,Nerchinskiy Zavod,RU,51.3088,119.61,254.15,100,100,1.16,overcast clouds
681,Sumbe,AO,-11.2061,13.8437,298.1,91,88,2.02,moderate rain
682,Opuwo,NA,-18.0607,13.84,296.0,63,37,4.94,light rain
683,Nisia Floresta,BR,-6.0911,-35.2086,301.6,78,11,4.61,few clouds
684,El Reno,US,35.5323,-97.955,288.25,20,1,10.8,clear sky
685,Geraldton,AU,-28.7667,114.6,57.61,82,58,5.75,broken clouds
686,Puerto Ayora,EC,-0.7393,-90.3518,75.16,92,99,7.74,overcast clouds
687,Lavrentiya,RU,65.5833,-171.0,-14.46,88,16,3.27,few clouds
688,Airai,TL,-8.9266,125.4092,66.88,78,100,1.05,overcast clouds
689,Xichang,CN,27.8964,102.2634,42.46,90,69,0.78,broken clouds
690,Mataura,NZ,-46.1927,168.8643,62.47,42,59,3.27,broken clouds
691,Rikitea,PF,-23.1203,-134.9692,77.65,76,87,8.63,light rain
692,Busselton,AU,-33.65,115.3333,55.81,60,100,8.81,overcast clouds
693,Sawtell,AU,-30.3833,153.1,71.92,73,40,12.66,scattered clouds
694,Patnanungan,PH,14.7833,122.1833,78.67,83,100,24.14,overcast clouds
695,Abu Kamal,SY,34.4506,40.9171,55.54,47,100,1.88,overcast clouds
696,New Norfolk,AU,-42.7826,147.0587,62.92,54,11,3.0,few clouds
697,Kortkeros,RU,61.8106,51.5806,1.18,96,89,4.83,overcast clouds
698,Sitka,US,57.0531,-135.33,35.49,69,90,8.05,overcast clouds
699,Foca,TR,38.6703,26.7566,57.04,83,100,16.82,overcast clouds
700,Georgetown,MY,5.4112,100.3354,79.9,82,20,0.0,few clouds
701,Hilo,US,19.7297,-155.09,79.11,59,75,5.75,broken clouds
702,Carnarvon,AU,-24.8667,113.6333,68.07,73,3,14.97,clear sky
703,Vidim,RU,56.4088,103.1106,5.04,97,100,3.85,overcast clouds
704,Arraial Do Cabo,BR,-22.9661,-42.0278,76.69,89,86,22.39,light rain
705,Inta,RU,66.0317,60.1659,10.58,94,100,11.83,overcast clouds
706,Ushuaia,AR,-54.8,-68.3,46.06,49,75,26.46,broken clouds
707,Pangody,RU,65.85,74.4859,-27.44,99,19,5.23,few clouds
708,Provideniya,RU,64.3833,-173.3,-7.49,64,0,4.47,clear sky
709,Nexo,DK,55.0607,15.1306,39.29,91,100,10.27,overcast clouds
710,Cherskiy,RU,68.75,161.3,-43.15,100,50,1.59,scattered clouds
711,Komsomolskiy,UZ,40.4272,71.7189,35.02,55,43,6.91,haze
712,Albany,US,42.6001,-73.9662,40.8,44,0,9.08,clear sky
713,Grindavik,IS,63.8424,-22.4338,41.47,87,75,19.57,light rain
714,Jamestown,US,42.097,-79.2353,42.39,51,1,7.0,clear sky
715,Mahebourg,MU,-20.4081,57.7,75.49,88,75,17.27,light intensity shower rain
716,Ulladulla,AU,-35.35,150.4667,66.87,66,1,4.79,clear sky
717,Vaini,TO,-21.2,-175.2,82.56,83,40,13.8,light rain
718,Vizianagaram,IN,18.1167,83.4167,68.41,85,33,4.63,scattered clouds
719,Adiake,CI,5.2863,-3.304,83.79,85,29,6.22,scattered clouds
720,Saskylakh,RU,71.9167,114.0833,-44.9,100,70,3.33,broken clouds
721,Riyadh,SA,24.6877,46.7219,51.94,30,36,5.99,scattered clouds
722,Otane,NZ,-39.8833,176.6333,70.39,88,100,7.49,overcast clouds
723,Ribeira Grande,PT,38.5167,-28.7,58.69,53,100,18.77,overcast clouds
724,Bethel,US,41.3712,-73.414,43.57,45,1,3.44,clear sky
725,Gonaives,HT,19.45,-72.6833,82.38,74,7,7.49,clear sky
726,Oranjemund,NA,-28.55,16.4333,61.83,92,56,2.77,broken clouds
727,Samarai,PG,-10.6167,150.6667,83.59,75,100,11.1,overcast clouds
728,East London,ZA,-33.0153,27.9116,71.85,95,100,7.87,light rain
729,Punta Arenas,CL,-53.15,-70.9167,50.11,34,0,23.02,clear sky
730,La Plata,AR,-34.9215,-57.9545,78.71,78,70,8.81,broken clouds
731,Castro,BR,-24.7911,-50.0119,71.85,49,92,4.38,overcast clouds
732,Port Elizabeth,ZA,-33.918,25.5701,71.1,88,90,4.61,overcast clouds
733,Hithadhoo,MV,-0.6,73.0833,80.83,79,100,11.1,overcast clouds
734,Almaznyy,RU,48.0448,40.045,26.74,58,100,17.29,overcast clouds
735,Avarua,CK,-21.2078,-159.775,73.45,94,75,5.75,heavy intensity rain
736,Quelimane,MZ,-17.8786,36.8883,82.35,69,0,13.8,clear sky
737,Pimentel,PE,-6.8367,-79.9342,73.69,64,0,17.27,clear sky
738,Sayat,TM,38.7839,63.8803,37.27,84,99,7.65,overcast clouds
739,Barrow,US,71.2906,-156.7887,-12.98,77,1,13.8,clear sky
740,Sao Joao Da Barra,BR,-21.6403,-41.0511,76.21,90,90,21.83,heavy intensity rain
741,Tessalit,ML,20.1986,1.0114,69.76,9,14,8.93,few clouds
742,Catuday,PH,16.2923,119.8062,77.05,74,80,10.02,broken clouds
743,Suntar,RU,62.1444,117.6319,-15.81,95,100,6.55,overcast clouds
744,Katsuura,JP,35.1333,140.3,51.91,62,80,14.97,broken clouds
745,Aosta,IT,45.7667,7.4167,28.9,72,5,3.0,clear sky
746,Tilichiki,RU,60.4667,166.1,-7.87,81,100,17.67,overcast clouds
747,Uxbridge,US,42.0773,-71.6295,42.35,55,3,1.99,clear sky
748,Tuktoyaktuk,CA,69.4541,-133.0374,-5.8,77,90,18.41,light snow
749,Mar Del Plata,AR,-38.0023,-57.5575,73.42,85,75,1.99,broken clouds
750,Gizo,SB,-8.103,156.8419,84.45,74,67,6.38,broken clouds
751,Dingle,PH,10.9995,122.6711,76.8,92,88,8.25,overcast clouds
752,Isangel,VU,-19.55,169.2667,83.21,77,100,10.02,overcast clouds
753,Alice Springs,AU,-23.7,133.8833,80.15,28,26,10.36,scattered clouds
754,Bluff,NZ,-46.6,168.3333,62.8,71,22,7.27,few clouds
755,Husavik,IS,66.0449,-17.3389,40.91,79,95,13.69,overcast clouds
756,The Hammocks,US,25.6715,-80.4445,80.62,78,1,11.5,clear sky
757,Sibolga,ID,1.7427,98.7792,75.42,91,100,1.19,overcast clouds
758,Rusape,ZW,-18.5278,32.1284,64.09,73,42,4.7,scattered clouds
759,Hanover,DE,52.3705,9.7332,48.87,94,90,10.36,light intensity drizzle
760,Xining,CN,36.6167,101.7667,21.27,30,0,2.53,clear sky
761,Hermanus,ZA,-34.4187,19.2345,64.9,88,62,7.61,broken clouds
762,Agirish,RU,61.9247,63.0231,10.42,90,98,4.85,overcast clouds
763,Bredy,RU,52.4153,60.3411,6.69,86,7,5.1,clear sky
764,Male,MV,4.1748,73.5089,80.55,89,75,8.05,broken clouds
765,Rovaniemi,FI,66.5,25.7167,26.01,100,90,6.91,fog
766,Bambous Virieux,MU,-20.3428,57.7575,75.45,88,75,17.27,light intensity shower rain
767,Lompoc,US,34.6391,-120.4579,65.08,56,1,14.97,clear sky
768,Cape Town,ZA,-33.9258,18.4232,66.61,79,20,1.99,few clouds
769,Byron Bay,AU,-28.65,153.6167,75.18,77,95,10.49,overcast clouds
770,Victoria,HK,22.2855,114.1577,65.32,70,53,1.01,broken clouds
771,Fuling,CN,29.7022,107.3919,49.78,90,98,2.13,overcast clouds
772,Gat,IL,31.61,34.7642,71.4,32,100,1.74,overcast clouds
773,Esperance,AU,-33.8667,121.9,55.24,53,68,4.38,broken clouds
774,Bara,NG,10.3744,10.7288,73.18,26,86,8.03,overcast clouds
775,Bubaque,GW,11.2833,-15.8333,81.21,73,21,13.27,few clouds
776,Chateauroux,FR,46.8167,1.7,48.2,93,90,3.44,overcast clouds
777,Constitucion,CL,-35.3333,-72.4167,57.96,62,1,18.7,clear sky
778,Mchinji,MW,-13.7984,32.8802,68.2,56,0,4.59,clear sky
779,Hamada,JP,34.8833,132.0833,46.42,70,85,9.04,light rain
780,Luchenza,MW,-16.0069,35.3095,77.38,47,88,2.93,overcast clouds
781,Pevek,RU,69.7008,170.3133,-32.93,96,13,1.54,few clouds
782,Cabo San Lucas,MX,22.8909,-109.9124,79.52,66,20,4.61,few clouds
783,Yelizovo,RU,53.1873,158.3805,28.54,74,75,4.0,broken clouds
784,Nishihara,JP,26.1842,127.7558,67.28,78,75,9.22,mist
785,Ponta Do Sol,PT,32.6667,-17.1,65.01,77,46,1.7,scattered clouds
786,Kodiak,US,57.79,-152.4072,15.28,57,1,34.52,clear sky
787,Tiksi,RU,71.6872,128.8694,-18.94,100,100,2.89,overcast clouds
788,Pisco,PE,-13.7,-76.2167,69.85,83,20,18.41,few clouds
789,Mikhaylovka,RU,50.06,43.2379,21.78,61,89,11.81,overcast clouds
790,Betare Oya,CM,5.6,14.0833,72.86,32,79,5.03,broken clouds
791,Rosetta,EG,31.4044,30.4164,60.62,64,100,6.76,overcast clouds
792,Laguna,US,38.421,-121.4238,54.91,85,90,3.0,overcast clouds
793,Atuona,PF,-9.8,-139.0333,79.11,78,15,18.97,few clouds
794,Ingham,US,42.6,-84.3833,44.55,56,1,8.05,clear sky
795,Birao,CF,10.2849,22.7882,72.18,30,78,5.86,broken clouds
796,Hobart,AU,-42.8794,147.3294,63.27,62,20,4.0,few clouds
797,Half Moon Bay,US,37.4636,-122.4286,56.91,89,90,4.0,light rain
798,Batemans Bay,AU,-35.7167,150.1833,72.19,61,2,4.09,clear sky
799,Thompson,CA,55.7435,-97.8558,3.36,78,90,0.0,light snow
800,Dikson,RU,73.5069,80.5464,-16.83,95,96,15.1,overcast clouds
801,Bredasdorp,ZA,-34.5322,20.0403,60.28,86,100,3.74,overcast clouds
802,Belyy Yar,RU,53.6039,91.3903,17.49,79,40,4.47,light shower snow
803,Festus,US,38.2206,-90.396,53.51,46,0,7.56,clear sky
804,Kindu,CD,-2.95,25.95,71.1,92,100,0.92,overcast clouds
805,Lodwar,KE,3.1191,35.5973,82.76,41,100,19.13,overcast clouds
806,Lorengau,PG,-2.0226,147.2712,82.96,82,100,15.28,overcast clouds
807,Port Moresby,PG,-9.4431,147.1797,78.22,89,75,5.75,broken clouds
808,Nikolskoye,RU,59.7035,30.7861,24.4,99,100,3.29,light snow
809,Harlingen,US,26.1906,-97.6961,69.75,57,90,10.36,overcast clouds
810,Quatre Cocos,MU,-20.2078,57.7625,75.31,72,89,12.17,overcast clouds
811,Yellowknife,CA,62.456,-114.3525,9.12,85,90,8.05,light snow
812,Upernavik,GL,72.7868,-56.1549,6.24,92,100,10.6,overcast clouds
813,Taltal,CL,-25.4,-70.4833,63.52,76,26,4.56,scattered clouds
814,Padang,ID,-0.9492,100.3543,77.05,93,100,1.66,light rain
815,Qaanaaq,GL,77.484,-69.3632,-3.71,72,79,3.78,broken clouds
816,Saint George,US,37.1041,-113.5841,61.27,37,1,3.0,clear sky
817,Maragogi,BR,-9.0122,-35.2225,79.03,79,21,11.36,few clouds
818,Bambanglipuro,ID,-7.95,110.2833,62.6,83,96,3.62,overcast clouds
819,Ahipara,NZ,-35.1667,173.1667,70.56,92,100,7.27,moderate rain
820,Lensk,RU,60.7253,114.9278,-13.02,98,100,3.62,overcast clouds
821,Hit,IQ,33.6416,42.8251,57.02,40,91,8.14,overcast clouds
822,Maniitsoq,GL,65.4167,-52.9,19.63,65,7,5.08,clear sky
823,Sao Jose Da Coroa Grande,BR,-8.8978,-35.1478,79.14,79,22,11.12,few clouds
824,Kaitangata,NZ,-46.2817,169.8464,59.94,65,62,5.19,broken clouds
825,Khatanga,RU,71.9667,102.5,-51.12,99,80,3.85,broken clouds
826,Inhambane,MZ,-23.865,35.3833,78.31,95,10,7.72,clear sky
827,Mwanza,TZ,-2.5167,32.9,70.12,81,97,13.89,moderate rain
828,Ambilobe,MG,-13.2,49.05,72.95,79,7,3.96,clear sky
829,Saint-Philippe,RE,-21.3585,55.7679,76.59,74,80,11.32,broken clouds
830,Butaritari,KI,3.0707,172.7902,82.62,71,74,16.37,broken clouds
831,Hasaki,JP,35.7333,140.8333,50.22,52,59,21.27,broken clouds
832,Port Alfred,ZA,-33.5906,26.891,71.02,96,100,14.23,overcast clouds
833,Severo-Kurilsk,RU,50.6789,156.125,33.19,87,80,12.46,broken clouds
834,Sainte-Suzanne,RE,-20.9061,55.6089,77.22,69,90,18.41,overcast clouds
835,Benguela,AO,-12.5763,13.4055,77.4,82,91,4.05,overcast clouds
836,Kamina,CD,-8.7386,24.9906,65.26,98,100,8.12,light rain
837,Ballina,AU,-28.8667,153.5667,71.64,84,90,6.91,overcast clouds
838,Clyde River,CA,70.4692,-68.5914,-1.97,92,90,10.36,light snow
839,Osypenko,UA,46.9136,36.8253,39.65,74,100,20.45,overcast clouds
840,Mtsensk,RU,53.2766,36.5733,28.18,84,98,10.89,overcast clouds
841,Vao,NC,-22.6667,167.4833,75.67,93,100,14.32,overcast clouds
842,Puerto Cabezas,NI,14.0351,-83.3888,82.36,83,75,6.91,broken clouds
843,Kruisfontein,ZA,-34.0033,24.7314,68.88,94,100,8.72,overcast clouds
844,San Juan,AR,-31.5375,-68.5364,77.14,40,7,19.37,clear sky
845,Port Lincoln,AU,-34.7333,135.8667,62.47,64,88,14.36,overcast clouds
846,Kuching,MY,1.55,110.3333,75.42,94,40,3.44,moderate rain
847,Cidreira,BR,-30.1811,-50.2056,71.49,87,1,13.94,clear sky
848,Chokurdakh,RU,70.6333,147.9167,-38.67,97,98,2.33,overcast clouds
849,Honningsvag,NO,70.9821,25.9704,31.53,95,100,17.85,light snow
850,Siguiri,GN,11.6667,-9.5,75.61,15,84,0.43,broken clouds
851,Alofi,NU,-19.0595,-169.9187,82.29,69,7,11.5,clear sky
852,Nizhniy Odes,RU,63.6445,54.856,12.85,91,100,5.95,overcast clouds
853,Linjiang,CN,41.8069,126.9078,0.18,92,32,1.52,scattered clouds
854,Grand-Santi,GF,4.25,-54.3833,73.62,99,100,2.57,overcast clouds
855,Cayenne,GF,4.9333,-52.3333,77.04,92,75,4.61,moderate rain
856,Chinsali,ZM,-10.5414,32.0816,65.37,70,70,1.95,broken clouds
857,Magadan,RU,59.5667,150.8,7.54,95,100,11.03,light snow
858,Nome,US,64.5011,-165.4064,-12.93,64,1,6.91,clear sky
859,Mana,GF,5.6592,-53.7767,76.59,92,100,10.6,light rain
860,Muros,ES,42.7762,-9.0603,56.84,96,68,6.26,broken clouds
861,Bodden Town,KY,19.2833,-81.25,84.2,79,20,4.0,few clouds
862,Dalkeith,GB,55.8934,-3.0638,54.09,81,98,7.0,overcast clouds
863,Dunedin,NZ,-45.8742,170.5036,61.54,62,62,5.82,broken clouds
864,Ialibu,PG,-6.2821,143.9935,59.63,83,100,1.19,overcast clouds
865,Rosario,AR,-32.9468,-60.6393,75.81,79,20,1.99,light rain
866,Kapaa,US,22.0752,-159.319,80.92,72,75,5.99,broken clouds
867,Aykhal,RU,66.0,111.5,-49.59,100,98,6.08,overcast clouds
868,Preobrazheniye,RU,42.9019,133.9064,16.12,54,9,14.38,clear sky
869,Lata,PT,40.1629,-8.3327,57.61,80,12,4.34,few clouds
870,Kupang,ID,-10.1667,123.5833,77.58,100,40,1.14,scattered clouds
871,Kewanee,US,41.2456,-89.9248,47.88,47,51,15.23,broken clouds
872,College,US,64.8569,-147.8028,-8.79,68,75,0.0,light snow
873,Pihani,IN,27.6333,80.2,55.63,54,1,2.93,clear sky
874,Ilulissat,GL,69.2167,-51.1,19.42,68,90,9.22,overcast clouds
875,Banepa,NP,27.6298,85.5214,39.52,93,20,2.3,few clouds
876,Coruripe,BR,-10.1256,-36.1756,79.21,77,55,13.22,broken clouds
877,Wilmington,US,34.2257,-77.9447,53.51,56,1,6.91,clear sky
878,Touros,BR,-5.1989,-35.4608,83.3,76,8,15.59,clear sky
879,Saldanha,ZA,-33.0117,17.9442,62.65,90,100,11.86,overcast clouds
880,Juxtlahuaca,MX,17.4294,-99.1467,80.11,49,25,1.28,scattered clouds
881,Namatanai,PG,-3.6667,152.4333,84.76,68,94,4.68,overcast clouds
882,Inhuma,BR,-6.6683,-41.7078,83.55,36,88,5.73,overcast clouds
883,Los Llanos De Aridane,ES,28.6585,-17.9182,62.35,74,20,10.0,few clouds
884,Tuatapere,NZ,-46.1333,167.6833,63.82,54,54,4.74,broken clouds
885,Belaya Gora,RU,68.5333,146.4167,-39.8,98,86,1.23,overcast clouds
886,Kirkenaer,NO,60.4564,12.0582,33.46,99,100,1.54,light snow
887,Hami,CN,42.8,93.45,22.19,44,30,4.18,scattered clouds
888,Viedma,AR,-40.8135,-62.9967,73.99,17,62,18.3,broken clouds
889,Yarada,IN,17.65,83.2667,73.17,80,33,10.4,scattered clouds
890,Comendador,DO,18.8775,-71.7028,74.73,68,30,5.44,scattered clouds
891,Huarmey,PE,-10.0681,-78.1522,70.47,78,82,8.5,broken clouds
892,Yumen,CN,40.2833,97.2,19.0,38,0,16.96,clear sky
893,Filotion,GR,37.05,25.5,55.9,76,84,4.0,broken clouds
894,Yerbogachen,RU,61.2767,108.0108,-41.08,99,37,3.74,scattered clouds
895,Kosice,SK,48.6667,21.3333,35.44,82,0,19.57,clear sky
896,Fukue,JP,32.6881,128.8419,47.03,66,56,20.85,broken clouds
897,Mizdah,LY,31.4451,12.9801,48.27,60,72,7.78,broken clouds
898,Deputatskiy,RU,69.3,139.9,-33.41,100,97,1.32,overcast clouds
899,Vanavara,RU,60.34,102.2797,-39.78,99,38,3.09,scattered clouds
900,Finschhafen,PG,-6.6024,147.8681,83.75,72,99,2.98,moderate rain
901,Lagoa,PT,39.05,-27.9833,57.74,53,100,22.57,overcast clouds
902,Petushki,RU,55.9264,39.461,18.3,93,85,6.85,overcast clouds
903,Pirapemas,BR,-3.7267,-44.2233,80.6,72,90,6.17,overcast clouds
904,Mecca,SA,21.4267,39.8261,71.67,62,44,2.82,scattered clouds
905,Staunton,US,38.1496,-79.0717,41.59,42,1,4.61,clear sky
906,Blagoyevo,RU,63.3667,47.9167,3.67,94,62,5.23,broken clouds
907,Wattegama,LK,6.7989,81.4808,72.73,93,100,4.03,overcast clouds
908,Methven,NZ,-43.6333,171.65,64.02,69,79,1.99,broken clouds
909,Porto Novo,BJ,6.4965,2.6036,84.02,81,30,6.58,scattered clouds
910,Ankazobe,MG,-18.3167,47.1167,59.41,79,81,7.05,broken clouds
911,Pechenga,RU,69.5259,31.1703,27.46,93,72,11.3,broken clouds
912,Wageningen,NL,51.9667,5.6667,51.94,99,90,10.36,mist
913,Boyolangu,ID,-8.1181,111.8935,77.47,88,83,4.27,broken clouds
914,Acapulco,MX,16.8634,-99.8901,85.82,70,1,8.05,clear sky
915,Maceio,BR,-9.6658,-35.7353,80.04,83,20,6.91,few clouds
916,Karaidel,RU,55.8337,56.9069,7.79,95,88,2.62,overcast clouds
917,Salalah,OM,17.0151,54.0924,73.49,38,0,9.22,clear sky
918,Arroyo,ES,41.6096,-4.7969,45.72,90,90,3.44,fog
919,Mount Gambier,AU,-37.8333,140.7667,69.71,64,31,13.8,scattered clouds
920,Tanabe,JP,33.7333,135.3667,47.43,73,17,13.53,few clouds
921,Neryungri,RU,56.6709,124.6491,-25.35,97,97,1.68,overcast clouds
922,Bilma,NE,18.6853,12.9164,65.73,11,17,8.86,few clouds
923,Resistencia,AR,-27.4606,-58.9839,86.05,51,0,11.5,clear sky
924,Igrim,RU,63.1906,64.4162,0.48,99,77,2.19,broken clouds
925,Ola,RU,59.5833,151.2833,8.15,91,100,11.14,light snow
926,Yining,CN,29.0361,114.5636,45.75,90,57,1.5,broken clouds
927,Qujing,CN,25.4833,103.7833,42.62,94,100,3.83,overcast clouds
928,Korop,UA,51.5664,32.9586,35.74,82,100,8.84,overcast clouds
929,Manggar,ID,-2.8833,108.2667,78.13,89,95,8.08,overcast clouds
930,Pangnirtung,CA,66.1451,-65.7125,-4.63,70,56,7.54,broken clouds
931,Jha Jha,IN,24.7667,86.3667,56.84,46,0,3.15,clear sky
932,Tual,ID,-5.6667,132.75,84.0,74,97,10.83,overcast clouds
933,Chuy,UY,-33.6971,-53.4616,68.59,76,0,13.0,clear sky
934,Leirvik,NO,59.7798,5.5005,43.21,81,100,9.84,overcast clouds
935,Aklavik,CA,68.2191,-135.0107,-3.17,90,100,21.81,overcast clouds
936,Ginda,IN,30.6945,78.4932,41.23,28,92,6.31,overcast clouds
937,Fare,PF,-16.7,-151.0167,80.85,74,83,10.96,light rain
938,Dumai,ID,1.6833,101.45,72.09,99,87,3.11,overcast clouds
939,Aleksandrov Gay,RU,50.147,48.5704,21.67,62,5,7.96,clear sky
940,Adre,TD,13.4667,22.2,70.39,20,80,10.07,broken clouds
941,Aswan,EG,24.0934,32.907,78.1,44,0,17.27,clear sky
942,Plasy,CZ,49.9345,13.3904,38.41,99,100,9.15,overcast clouds
943,Talcahuano,CL,-36.7167,-73.1167,60.48,59,0,18.41,clear sky
944,Lyubech,UA,51.7026,30.6569,32.05,87,100,5.68,overcast clouds
945,Nanortalik,GL,60.1432,-45.2371,21.69,78,27,4.99,scattered clouds
946,Zhaozhou,CN,45.6833,125.3167,1.9,88,52,7.38,broken clouds
947,Paamiut,GL,61.994,-49.6678,10.85,78,1,6.49,clear sky
948,Warrnambool,AU,-38.3833,142.4833,79.57,34,55,12.33,broken clouds
949,Kavaratti,IN,10.5669,72.642,81.09,73,91,2.98,overcast clouds
950,Koslan,RU,63.4564,48.8989,1.53,95,85,4.54,overcast clouds
951,Vila Velha,BR,-20.3297,-40.2925,80.55,87,0,10.0,light rain
952,Sile,TR,41.1754,29.6133,59.2,74,98,7.49,light rain
953,Juegang,CN,32.3174,121.1855,37.9,69,3,8.08,clear sky
954,Port Blair,IN,11.6667,92.75,79.11,73,66,12.84,broken clouds
955,Port Macquarie,AU,-31.4333,152.9167,72.9,60,1,10.16,clear sky
956,Camargo,MX,27.6667,-105.1667,69.78,26,1,6.49,clear sky
957,Sao Filipe,CV,14.8961,-24.4956,74.89,72,91,5.7,overcast clouds
958,Pauini,BR,-7.7136,-66.9764,75.54,98,89,3.31,overcast clouds
959,Vestmanna,FO,62.1564,-7.1664,40.12,81,90,8.05,overcast clouds
960,Ancud,CL,-41.8697,-73.8203,58.42,69,38,9.35,scattered clouds
961,Koumac,NC,-20.5667,164.2833,76.42,91,100,6.51,moderate rain
962,Nioro,GM,13.35,-15.75,76.05,45,59,5.53,broken clouds
963,Lincoln,US,40.8,-96.667,53.55,26,1,17.27,clear sky
964,Aksu,CN,41.1231,80.2644,19.2,75,11,1.41,few clouds
965,Vilhena,BR,-12.7406,-60.1458,71.82,94,75,5.75,heavy intensity rain
966,The Pas,CA,53.8251,-101.2541,15.82,92,90,2.3,overcast clouds
967,Jishui,CN,33.7333,115.4,34.63,54,0,6.26,clear sky
968,Hofn,IS,64.2539,-15.2082,38.86,90,100,2.3,overcast clouds
969,Alyangula,AU,-13.8483,136.4192,80.47,94,86,0.0,overcast clouds
970,Kahului,US,20.8947,-156.47,80.62,76,40,20.71,scattered clouds
971,Vaitape,PF,-16.5167,-151.75,80.98,72,43,10.16,light rain
972,Waipawa,NZ,-41.4122,175.5153,61.93,76,99,9.13,overcast clouds
973,Vigrestad,NO,58.5667,5.7,44.01,89,100,13.71,overcast clouds
974,Maumere,ID,-8.6199,122.2111,81.77,78,100,3.0,overcast clouds
975,Bac Lieu,VN,9.285,105.7244,74.57,88,88,5.1,overcast clouds
976,Coihaique,CL,-45.5752,-72.0662,55.35,58,75,5.75,broken clouds
977,Mabaruma,GY,8.2,-59.7833,72.91,99,100,2.19,overcast clouds
978,Vila,PT,42.0304,-8.1588,45.93,91,30,4.09,scattered clouds
979,Inverell,AU,-29.7833,151.1167,76.66,62,0,1.99,clear sky
980,Manadhoo,MV,5.7667,73.3833,82.31,75,100,17.92,overcast clouds
981,Frederico Westphalen,BR,-27.3592,-53.3944,76.44,55,54,2.98,light rain
982,Luganville,VU,-15.5333,167.1667,81.82,86,100,13.96,moderate rain
983,Luderitz,NA,-26.6481,15.1594,61.63,83,2,10.78,clear sky
984,Sisimiut,GL,66.9395,-53.6735,15.84,86,60,10.0,broken clouds
985,Junagarh,IN,19.8667,82.9333,60.55,74,36,1.45,scattered clouds
986,Burnie,AU,-41.0667,145.9167,62.92,64,71,11.1,broken clouds
987,Manerbio,IT,45.3558,10.1352,41.9,91,0,4.61,clear sky
988,Zhuhai,CN,22.2769,113.5678,65.05,68,20,21.85,few clouds
989,Berlevag,NO,70.8578,29.0864,32.0,74,75,11.5,broken clouds
990,Walvis Bay,NA,-22.9575,14.5053,61.75,82,0,4.61,clear sky
991,Fagersta,SE,60.0042,15.7932,31.24,94,91,3.65,overcast clouds
992,Puerto Del Rosario,ES,28.5004,-13.8627,64.15,88,20,6.91,few clouds
993,Faanui,PF,-16.4833,-151.75,80.96,72,42,10.0,light rain
994,Mount Isa,AU,-20.7333,139.5,85.77,16,8,6.91,clear sky
995,Flinders,AU,-34.5833,150.8552,68.81,71,13,4.65,few clouds
996,Fortuna,US,40.5982,-124.1573,52.93,78,75,1.99,broken clouds
997,Kiama,AU,-34.6833,150.8667,69.01,70,17,1.99,few clouds
998,Margate,GB,51.3813,1.3862,53.31,82,98,3.0,overcast clouds
999,Codrington,AU,-38.2667,141.9667,84.02,23,63,16.11,broken clouds
1000,Arlit,NE,18.7369,7.3853,69.58,8,87,7.18,overcast clouds
1001,Maryville,US,35.7565,-83.9705,46.72,56,1,1.99,clear sky
1002,Tautira,PF,-17.7333,-149.15,86.02,79,87,10.67,light rain
1003,Pulgaon,IN,20.7333,78.3333,61.29,59,50,5.14,scattered clouds
1004,Ilo,PE,-17.6394,-71.3375,67.53,84,75,5.95,broken clouds
1005,Araouane,ML,18.9048,-3.5265,71.06,9,32,9.13,scattered clouds
1006,Naze,JP,28.3667,129.4833,59.92,69,81,18.23,broken clouds
1007,South Sioux City,US,42.4739,-96.4136,44.55,49,1,12.66,clear sky
1008,Taraza,CO,7.5836,-75.4007,76.17,93,98,1.61,overcast clouds
1009,Bandarbeyla,SO,9.4942,50.8122,76.41,77,3,21.72,clear sky
1010,Csurgo,HU,46.2531,17.1006,35.22,72,16,11.01,few clouds
1011,Cessnock,AU,-32.8333,151.35,71.51,53,27,1.01,scattered clouds
1012,Worland,US,44.0169,-107.9554,51.15,66,1,4.0,clear sky
1013,Amarante Do Maranhao,BR,-5.5667,-46.7422,74.1,93,99,0.27,light rain
1014,Bethanien,NA,-26.502,17.1583,71.11,23,12,5.19,few clouds
1015,Nantucket,US,41.2835,-70.0995,43.97,54,1,12.66,clear sky
1016,Koulikoro,ML,14.0,-7.75,72.82,11,31,7.11,scattered clouds
1017,Sioux Lookout,CA,50.1001,-91.917,34.18,74,40,4.61,scattered clouds
1018,Teguise,ES,29.0605,-13.564,57.42,67,0,5.75,clear sky
1019,Talnakh,RU,69.4865,88.3972,-25.91,83,79,1.3,broken clouds
1020,Taunggyi,MM,20.7833,97.0333,57.15,84,40,1.86,scattered clouds
1021,Magnolia,US,33.2671,-93.2393,56.88,54,0,3.96,clear sky
1022,Vestmannaeyjar,IS,63.4427,-20.2734,43.84,70,99,20.62,light rain
1023,Hirara,JP,24.8,125.2833,68.27,83,75,19.57,broken clouds
1024,Hailar,CN,49.2,119.7,9.41,83,100,12.73,overcast clouds
1025,Adrar,MR,20.5022,-10.0711,67.35,16,43,10.71,scattered clouds
1026,Northam,GB,51.0333,-4.2167,54.01,93,82,22.35,light rain
1027,Narsaq,GL,60.9167,-46.05,19.62,79,3,3.15,clear sky
1028,Mayumba,GA,-3.432,10.6554,76.33,90,92,1.19,overcast clouds
1029,Aleksinac,RS,43.5417,21.7078,34.56,99,100,3.49,light snow
1030,Hastings,GB,50.8552,0.5729,53.98,83,80,18.61,broken clouds
1031,Shimoda,JP,34.6667,138.95,53.1,61,0,19.84,clear sky
1032,Qasigiannguit,GL,68.8193,-51.1922,19.65,93,92,6.31,overcast clouds
1033,Krasnozerskoye,RU,53.9828,79.2374,4.87,96,100,7.56,overcast clouds
1034,Shelburne,CA,44.0787,-80.2041,37.56,74,0,20.87,clear sky
1035,Lebu,CL,-37.6167,-73.65,56.37,67,4,8.95,clear sky
1036,Kihei,US,20.785,-156.4656,80.62,77,40,20.71,scattered clouds
1037,Goedereede,NL,51.8175,3.9806,52.02,88,93,3.0,overcast clouds
1038,Vorobyevka,RU,50.6451,40.9245,25.9,57,94,13.13,overcast clouds
1039,Acajutla,SV,13.5928,-89.8275,93.54,71,48,4.88,scattered clouds
1040,Turan,VN,16.0678,108.2208,73.38,78,75,5.75,broken clouds
1041,San Ramon,US,37.7799,-121.978,55.02,81,90,1.99,light rain
1042,Hauterive,FR,46.0901,3.4459,43.09,92,96,2.68,overcast clouds
1043,San Patricio,US,28.017,-97.5169,68.09,35,0,8.25,clear sky
1044,Omboue,GA,-1.5746,9.2618,75.83,91,100,3.11,overcast clouds
1045,Krasnyy Chikoy,RU,50.3643,108.7512,-2.61,96,7,1.1,clear sky
1046,Locri,IT,38.2414,16.2623,53.24,73,95,10.25,overcast clouds
1047,Mangrol,IN,21.1167,70.1167,72.0,58,0,6.89,clear sky
1048,Bairnsdale,AU,-37.8333,147.6167,66.7,73,1,1.01,clear sky
1049,Troitskoye,RU,52.9821,84.6757,-2.22,99,75,3.6,broken clouds
1050,Torbay,CA,47.6666,-52.7314,50.77,94,90,33.38,light intensity drizzle
1051,Shakawe,BW,-18.3667,21.85,70.25,79,98,5.91,overcast clouds
1052,Praxedis Guerrero,MX,31.3667,-106.0167,65.43,32,0,2.1,clear sky
1053,Catazaja,MX,17.725,-92.0167,88.65,76,4,4.43,clear sky
1054,Ulaangom,MN,49.9811,92.0667,-3.59,90,100,2.95,overcast clouds
1055,Iqaluit,CA,63.7506,-68.5145,6.53,65,75,10.0,broken clouds
1056,Hamilton,US,39.1834,-84.5333,45.45,50,1,1.01,clear sky
1057,Villa Carlos Paz,AR,-31.4241,-64.4978,68.05,51,93,3.0,light rain
1058,San Quintin,MX,30.4833,-115.95,62.2,60,2,10.18,clear sky
1059,Zhigalovo,RU,54.8097,105.1578,13.73,95,100,4.63,overcast clouds
1060,Tomatlan,MX,19.9333,-105.25,83.32,65,6,8.28,clear sky
1061,Skaelskor,DK,55.2506,11.2935,45.09,98,100,8.19,overcast clouds
1062,Anadyr,RU,64.75,177.4833,-28.52,74,75,8.95,mist
1063,Aden,YE,12.7794,45.0367,78.22,62,0,15.19,clear sky
1064,Doka,SD,13.5167,35.7667,75.18,25,10,9.4,clear sky
1065,Urusha,RU,54.05,122.9,-3.84,96,100,1.74,overcast clouds
1066,Okhotsk,RU,59.3833,143.3,0.84,75,100,17.25,overcast clouds
1067,Burns Lake,CA,54.2331,-125.7533,18.82,84,92,1.39,overcast clouds
1068,La Rioja,ES,42.25,-2.5,38.05,57,55,5.79,broken clouds
1069,Monrovia,LR,6.3005,-10.7969,78.57,82,8,6.69,clear sky
1070,Havelock,US,34.8791,-76.9013,51.78,64,1,8.05,clear sky
1071,Micheweni,TZ,-4.9667,39.8333,77.94,84,47,6.82,moderate rain
1072,Semey,KZ,50.4111,80.2275,11.55,93,100,6.55,overcast clouds
1073,Ouadda,CF,8.0777,22.4007,73.38,33,76,5.84,broken clouds
1074,Whitehorse,CA,60.7161,-135.0538,-3.23,70,90,5.99,light snow
1075,Hudson Bay,CA,52.85,-102.3842,20.35,96,98,3.51,overcast clouds
1076,Tasiilaq,GL,65.6145,-37.6368,41.16,80,100,16.96,light rain
1077,Port Hardy,CA,50.6996,-127.4199,37.76,100,75,3.44,light shower snow
1078,Banyo,CM,6.75,11.8167,69.42,28,64,3.06,broken clouds
1079,Miri,MY,4.4148,114.0089,75.34,94,40,0.0,scattered clouds
1080,Dubti,ET,11.7361,41.0853,73.42,57,2,9.26,clear sky
1081,Jiuquan,CN,39.7432,98.5174,17.46,38,0,2.59,clear sky
1082,Mastic Beach,US,40.7668,-72.8521,45.99,45,1,4.0,clear sky
1083,Shubarkuduk,KZ,49.1447,56.4872,16.57,69,0,10.51,clear sky
1084,Fairbanks,US,64.8378,-147.7164,-8.77,69,1,3.44,light snow
1085,Partyzany,UA,46.3314,34.7503,43.43,83,100,20.4,overcast clouds
1086,Grand Gaube,MU,-20.0064,57.6608,75.6,77,88,3.0,overcast clouds
1087,Sur,OM,22.5667,59.5289,70.36,63,6,6.11,clear sky
1088,Noshiro,JP,40.2039,140.0242,31.14,66,100,30.29,light snow
1089,Kibondo,TZ,-3.5864,30.7203,60.03,99,83,1.99,moderate rain
1090,Libreville,GA,0.3925,9.4537,80.62,89,20,2.3,few clouds
1091,Aquiraz,BR,-3.9014,-38.3911,86.22,63,63,12.64,broken clouds
1092,Beringovskiy,RU,63.05,179.3167,-17.03,99,100,13.38,overcast clouds
1093,Houma,US,29.5958,-90.7195,60.8,68,1,8.05,clear sky
1094,Zabaykalsk,RU,49.6333,117.3167,4.1,90,97,4.38,overcast clouds
1095,Belmonte,BR,-15.8631,-38.8828,77.5,86,84,7.85,broken clouds
1096,Ottawa,CA,45.4112,-75.6981,40.23,57,40,1.99,scattered clouds
1097,Tateyama,JP,34.9833,139.8667,51.82,54,59,20.54,broken clouds
1098,Sambava,MG,-14.2667,50.1667,74.73,84,89,7.83,light rain
1099,Paracuru,BR,-3.41,-39.0306,82.42,77,68,12.55,broken clouds
1100,Olafsvik,IS,64.8945,-23.7142,41.88,89,99,19.73,light rain
1101,Dukat,RU,62.55,155.55,-4.16,99,100,5.32,overcast clouds
1102,Batagay,RU,67.6333,134.6333,-42.84,100,93,1.28,overcast clouds
1103,Moose Factory,CA,51.2585,-80.6094,23.0,93,90,0.0,light snow
1104,Nikolayevsk-Na-Amure,RU,53.1406,140.73,24.17,94,100,9.6,light snow
1105,Kitob,UZ,39.0843,66.8332,37.98,73,100,1.1,overcast clouds
1106,Stokmarknes,NO,68.5646,14.9108,30.38,91,95,5.77,overcast clouds
1107,Ayodhya,IN,26.8,82.2,55.71,63,0,2.17,clear sky
1108,Tahoua,NE,14.8888,5.2692,73.38,17,0,4.61,clear sky
1109,Eregli,TR,37.5133,34.0467,46.69,43,94,2.91,overcast clouds
1110,Srednekolymsk,RU,67.45,153.6833,-39.23,97,98,2.35,overcast clouds
1111,Hovd,MN,48.0056,91.6419,7.63,59,93,4.88,overcast clouds
1112,Roald,NO,62.5833,6.1333,42.01,87,40,8.05,scattered clouds
1113,Samana,DO,19.2056,-69.3369,80.56,89,37,8.68,scattered clouds
1114,Meulaboh,ID,4.1363,96.1285,75.45,90,88,1.63,overcast clouds
1115,Mocuba,MZ,-16.8392,36.9856,79.84,61,2,5.37,clear sky
1116,Portland,US,45.5234,-122.6762,47.14,86,90,1.99,overcast clouds
1117,Karratha,AU,-20.7377,116.8463,89.1,22,0,10.87,clear sky
1118,Jalu,LY,29.0331,21.5482,54.43,74,2,8.79,clear sky
1119,Kainantu,PG,-6.2887,145.8655,63.82,94,100,0.98,moderate rain
1120,Zhigansk,RU,66.7697,123.3711,-36.65,99,94,8.61,overcast clouds
1121,Haines Junction,CA,60.7522,-137.5108,-5.85,54,99,8.05,overcast clouds
1122,Katobu,ID,-4.9408,122.5276,79.41,89,100,2.84,light rain
1123,Liverpool,GB,53.4106,-2.9779,54.28,81,20,5.99,few clouds
1124,Kilrush,IE,52.6397,-9.4833,46.15,77,100,15.61,overcast clouds
1125,Izumo,JP,35.3667,132.7667,46.35,61,75,18.41,broken clouds
1126,Emba,KZ,48.8264,58.1442,13.41,80,4,13.29,clear sky
1127,Kilindoni,TZ,-7.9139,39.6668,79.14,78,97,8.05,moderate rain
1128,Lopukhiv,UA,48.3653,23.9638,31.82,96,100,4.99,overcast clouds
1129,Klaksvik,FO,62.2266,-6.589,41.92,73,100,17.56,overcast clouds
1130,Nong Phai,TH,15.9903,101.0618,72.12,77,9,6.15,clear sky
1131,Westport,US,41.1415,-73.3579,46.74,45,1,4.0,clear sky
1132,Thiers,FR,45.8333,3.5,43.97,95,79,3.06,broken clouds
1133,Seoul,KR,37.5683,126.9778,24.24,58,0,6.91,clear sky
1134,Balakhninskiy,RU,58.0106,114.2769,-4.61,100,100,0.96,overcast clouds
1135,Macapa,BR,0.0389,-51.0664,85.98,70,20,9.22,few clouds
1136,Awjilah,LY,29.1081,21.2869,54.46,76,2,8.55,clear sky
1137,Pajapan,MX,18.25,-94.7,72.68,87,55,11.32,broken clouds
1138,Peniche,PT,39.3558,-9.3811,61.61,74,5,7.7,clear sky
1139,Joao Camara,BR,-5.5375,-35.8197,81.64,77,9,14.16,clear sky
1140,Longyearbyen,SJ,78.2186,15.6401,31.84,74,75,18.41,broken clouds
1141,Umea,SE,63.8284,20.2597,33.73,93,90,8.05,overcast clouds
1142,Altay,CN,47.8667,88.1167,10.87,64,86,5.37,overcast clouds
1143,Elk City,US,35.412,-99.4043,62.82,17,1,14.97,clear sky
1144,Along,IN,28.1667,94.7667,49.48,75,8,1.59,clear sky
1145,Palauig,PH,15.435,119.9045,77.94,74,100,5.82,overcast clouds
1146,Ostrovnoy,RU,68.0531,39.5131,30.29,91,100,15.46,overcast clouds
1147,Shimizu,JP,43.0061,142.8847,28.15,78,38,20.71,light snow
1148,Victor Harbor,AU,-35.5667,138.6167,78.19,76,59,1.99,broken clouds
1149,Kemijarvi,FI,66.7131,27.4306,24.91,97,99,5.79,overcast clouds
1150,Zemetchino,RU,53.4973,42.6163,21.81,71,30,10.63,scattered clouds
1151,Carahue,CL,-38.7,-73.1667,61.0,62,39,6.11,scattered clouds
1152,Ponta Delgada,PT,37.7333,-25.6667,56.5,62,40,10.36,scattered clouds
1153,Tamale,GH,9.4008,-0.8393,83.46,20,93,5.82,overcast clouds
1154,Falmouth,GB,50.1544,-5.0711,54.5,87,90,20.71,overcast clouds
1155,Birjand,IR,32.8663,59.2211,27.07,46,0,6.91,clear sky
1156,Chechat,IN,24.7667,75.8833,56.89,48,0,2.13,clear sky
1157,Maningrida,AU,-12.0667,134.2667,87.39,62,61,7.92,broken clouds
1158,Bengkulu,ID,-3.8004,102.2655,74.77,88,100,3.8,overcast clouds
1159,Sinnamary,GF,5.3833,-52.95,77.09,90,100,10.58,overcast clouds
1160,Havoysund,NO,70.9963,24.6622,32.88,98,100,10.07,light snow
1161,Athmallik,IN,20.7219,84.5348,62.96,92,13,2.73,few clouds
1162,Nizwa,OM,22.9333,57.5333,60.8,56,15,1.57,few clouds
1163,Cam Ranh,VN,11.9214,109.1591,76.96,61,20,17.27,few clouds
1164,Nichinan,JP,31.6,131.3667,48.47,71,3,7.96,clear sky
1165,Berdigestyakh,RU,62.0989,126.6992,-12.15,98,100,5.06,overcast clouds
1166,Khlung,TH,12.4547,102.2214,70.07,81,6,8.7,clear sky
1167,Kyrylivka,UA,46.3759,35.3675,43.52,83,100,26.08,overcast clouds
1168,Coquimbo,CL,-29.9533,-71.3436,67.73,59,0,12.66,clear sky
1169,Sweetwater,US,25.7634,-80.3731,80.62,75,20,1.01,few clouds
1170,Cairns,AU,-16.9167,145.7667,91.11,67,40,8.05,scattered clouds
1171,Ellisras,ZA,-23.6649,27.7443,76.21,51,100,3.56,overcast clouds
1172,Sangar,RU,63.9242,127.4739,-31.31,97,92,1.99,overcast clouds
1173,Chaman,PK,30.9236,66.4512,42.04,27,0,6.11,clear sky
1174,Sacama,EC,-3.9,-79.2667,55.42,68,90,4.61,light rain
1175,Kermanshah,IR,34.3142,47.065,31.1,86,0,0.0,clear sky
1176,Sola,VU,-13.8833,167.55,81.09,81,100,17.83,overcast clouds
1177,Borzya,RU,50.3833,116.5167,2.43,92,98,3.2,overcast clouds
1178,Kapasan,ID,-6.7773,111.3789,75.96,90,99,3.87,overcast clouds
1179,Orange,US,33.7,-117.7675,69.96,55,20,1.01,few clouds
1180,Leningradskiy,RU,69.3833,178.4167,-31.25,91,3,4.41,clear sky
1181,Tura,IN,25.5198,90.2201,55.92,77,0,3.71,clear sky
1182,Vardo,NO,70.3705,31.1107,30.4,84,89,26.51,overcast clouds
1183,Elat,IL,29.5581,34.9482,62.44,42,0,8.05,clear sky
1184,Narasannapeta,IN,18.4167,84.05,68.79,84,26,7.49,scattered clouds
1185,Sept-Iles,CA,50.2001,-66.3821,29.05,67,40,21.0,scattered clouds
1186,Itarema,BR,-2.9248,-39.9167,80.64,79,38,15.41,scattered clouds
1187,Pszow,PL,50.0399,18.3947,25.93,94,49,3.76,scattered clouds
1188,Vanimo,PG,-2.6741,141.3028,82.4,78,100,5.55,overcast clouds
1189,Beloha,MG,-25.1667,45.05,72.0,84,55,6.89,broken clouds
1190,Fomboni,KM,-12.28,43.7425,81.18,74,94,14.29,overcast clouds
1191,Keffi,NG,8.8486,7.8736,71.98,23,61,4.23,broken clouds
1192,Davila,PH,18.4726,120.5763,67.98,74,76,24.79,broken clouds
1193,Najran,SA,17.4924,44.1277,52.45,63,6,1.86,clear sky
1194,Matara,LK,5.9485,80.5353,76.42,84,98,7.31,light rain
1195,Necochea,AR,-38.5473,-58.7368,68.04,61,85,7.54,overcast clouds
1196,Tarko-Sale,RU,64.9225,77.785,-24.2,87,53,8.19,broken clouds
1197,Bolivar,US,37.6145,-93.4105,52.77,46,0,9.53,clear sky
1198,Wlodawa,PL,51.55,23.55,26.94,95,100,5.97,overcast clouds
1199,Caravelas,BR,-17.7125,-39.2481,76.62,87,51,9.08,broken clouds
1200,Marsh Harbour,BS,26.5412,-77.0636,76.55,77,4,11.23,clear sky
1201,Piedecuesta,CO,6.9879,-73.0495,72.72,96,96,2.3,overcast clouds
1202,Mogadishu,SO,2.0371,45.3438,79.0,83,94,18.12,overcast clouds
1203,Olinda,BR,-8.0089,-34.8553,82.13,65,40,6.91,scattered clouds
1204,Lakatoro,VU,-16.0999,167.4164,83.52,80,100,13.35,heavy intensity rain
1205,Camacha,PT,33.0833,-16.3333,60.53,88,40,2.3,scattered clouds
1206,Zmeinogorsk,RU,51.1567,82.195,6.22,99,100,2.44,light snow
1207,Baker City,US,44.7749,-117.8344,44.31,68,90,10.36,overcast clouds
1208,Vagur,FO,61.4732,-6.8119,41.27,92,100,17.36,overcast clouds
1209,Lampa,CL,-33.2833,-70.9,72.43,38,0,14.97,clear sky
1210,Coos Bay,US,43.3665,-124.2179,51.78,85,75,11.5,broken clouds
1211,Ivolginsk,RU,51.7492,107.2837,2.86,78,20,0.0,few clouds
1212,Muroto,JP,33.2833,134.15,48.24,59,12,11.5,few clouds
1213,Andros Town,BS,24.7,-77.7667,78.76,75,2,14.36,clear sky
1214,Faya,SA,18.3851,42.4509,48.72,44,6,3.53,clear sky
1215,Rio Gallegos,AR,-51.6226,-69.2181,55.45,21,40,34.52,scattered clouds
1216,Eirunepe,BR,-6.6603,-69.8736,76.8,92,81,3.0,broken clouds
1217,Dumra,IN,26.5667,85.5167,56.39,52,0,3.91,clear sky
1218,Comodoro Rivadavia,AR,-45.8667,-67.5,57.06,82,75,4.61,light rain
1219,Bulgan,MN,48.8125,103.5347,16.07,30,56,4.63,broken clouds
1220,Bonavista,CA,48.6499,-53.1147,45.12,73,100,30.42,overcast clouds
1221,Norman Wells,CA,65.282,-126.8329,-2.16,71,75,12.66,light snow
1222,Yatou,CN,37.15,122.3833,28.53,63,27,6.64,scattered clouds
1223,Cururupu,BR,-1.8283,-44.8683,79.2,84,58,5.46,broken clouds
1224,Plattsburgh,US,44.6995,-73.4529,43.02,37,1,4.0,clear sky
1225,Gushikawa,JP,26.3544,127.8686,67.23,79,90,16.11,mist
1226,Gornopravdinsk,RU,60.05,69.9,14.36,94,100,6.8,overcast clouds
1227,Pattani,TH,6.75,100.4167,76.71,92,100,3.15,overcast clouds
1228,Loukhi,RU,66.0764,33.0381,24.93,98,100,3.69,light snow
1229,Dhidhdhoo,MV,6.8833,73.1,81.34,76,89,4.81,overcast clouds
1230,Banjar,ID,-8.19,114.9675,78.66,89,92,4.5,light rain
1231,Anchorage,US,61.2181,-149.9003,10.44,49,1,17.27,clear sky
1232,San Juan Capistrano,US,33.5017,-117.6626,70.18,64,2,4.0,clear sky
1233,Mnogovershinnyy,RU,53.9353,139.9242,19.35,94,100,12.5,snow
1234,Luebo,CD,-5.35,21.4167,71.49,98,100,1.12,overcast clouds
1235,Pouebo,NC,-20.4,164.5667,76.98,91,100,8.59,moderate rain
1236,Kalemie,CD,-5.9475,29.1947,69.3,92,89,5.1,moderate rain
1237,Bima,ID,-8.4667,118.7167,79.36,89,100,2.75,light rain
1238,Souillac,MU,-20.5167,57.5167,75.58,88,75,17.27,light intensity shower rain
1239,Wamba,NG,8.9333,8.6,75.79,21,95,4.9,overcast clouds
1240,Marathon,US,44.9,-89.7668,36.93,60,1,4.61,light rain
1241,Labuhan,ID,-6.8844,112.2051,78.58,86,95,9.13,overcast clouds
1242,Kushmurun,KZ,52.4503,64.6311,2.55,95,10,3.29,clear sky
1243,Desnogorsk,RU,54.1508,33.2815,29.59,95,100,6.85,overcast clouds
1244,Senden,DE,48.3244,10.0444,40.1,89,100,1.99,overcast clouds
1245,Tezu,IN,27.9167,96.1667,58.15,53,29,3.71,scattered clouds
1246,General Roca,AR,-39.0333,-67.5833,74.62,21,15,26.15,few clouds
1247,Omsukchan,RU,62.5333,155.8,-4.38,98,100,6.91,overcast clouds
1248,Fort Nelson,CA,58.8053,-122.7002,0.99,85,90,3.44,light snow
1249,Makakilo City,US,21.3469,-158.0858,80.92,60,75,13.8,broken clouds
1250,Gamba,GA,-2.65,10.0,75.47,93,99,2.66,overcast clouds
1251,Khash,IR,28.2211,61.2158,43.36,33,0,3.49,clear sky
1252,Bowmore,US,34.9421,-79.3031,51.71,46,1,5.75,clear sky
1253,Ojinaga,MX,29.5667,-104.4167,70.41,30,1,0.0,clear sky
1254,Sorland,NO,67.667,12.6934,36.72,97,95,17.38,overcast clouds
1255,San Nicolas,PH,18.1725,120.5953,67.91,88,20,2.3,few clouds
1256,Pacific Grove,US,36.6177,-121.9166,58.15,71,100,7.0,overcast clouds
1257,Uvat,RU,59.1433,68.8953,15.94,95,99,7.38,light snow
1258,Rocha,UY,-34.4833,-54.3333,70.05,74,66,8.19,broken clouds
1259,Posse,BR,-14.0931,-46.3694,69.84,94,100,3.91,overcast clouds
1260,Velizh,RU,55.6056,31.1967,32.77,99,100,6.06,light snow
1261,Lillesand,NO,58.2488,8.3778,35.64,93,75,3.44,mist
1262,Chilca,PE,-12.5211,-76.7372,69.96,88,22,7.94,few clouds
1263,Zeya,RU,53.75,127.2667,-5.67,84,42,1.54,scattered clouds
1264,Bereda,ES,43.2686,-7.5406,46.58,100,74,1.88,broken clouds
1265,Te Anau,NZ,-45.4167,167.7167,63.48,58,60,3.02,broken clouds
1266,Ust-Kuyga,RU,70.0167,135.6,-39.73,100,99,2.08,overcast clouds
1267,Sterling,US,39.0062,-77.4286,47.12,43,1,0.0,clear sky
1268,Sao Paulo Do Potengi,BR,-5.895,-35.7628,82.51,77,22,11.34,few clouds
1269,Charters Towers,AU,-20.1,146.2667,83.55,50,35,14.27,scattered clouds
1270,Puerto Maldonado,PE,-12.6,-69.1833,86.4,70,40,2.3,scattered clouds
1271,Kirakira,SB,-10.4544,161.9205,83.7,81,96,14.58,overcast clouds
1272,Qabaqcol,AZ,41.72,46.2647,44.64,79,56,2.01,broken clouds
1273,Bonfim,BR,3.0833,-59.95,80.24,74,100,7.18,overcast clouds
1274,Waingapu,ID,-9.6567,120.2641,81.48,78,97,1.25,overcast clouds
1275,Shizunai,JP,42.3339,142.3669,31.17,61,99,34.49,light snow
1276,Martapura,ID,-3.4167,114.85,77.09,100,40,3.44,light rain
1277,Kieta,PG,-6.2167,155.6333,85.1,73,94,2.8,light rain
1278,Krasnoselkup,RU,65.7,82.4667,-16.78,92,100,5.95,overcast clouds
1279,Novominskaya,RU,46.3163,38.9586,38.3,74,100,16.6,overcast clouds
1280,Vostok,RU,46.4856,135.8833,1.53,96,100,8.01,light snow
1281,Gustavo Diaz Ordaz,MX,26.2333,-98.5833,68.02,44,1,6.76,clear sky
1282,Bhuj,IN,23.2667,69.6667,66.99,38,1,4.94,clear sky
1283,Sines,PT,37.9562,-8.8698,59.29,69,0,1.99,clear sky
1284,Namibe,AO,-15.1961,12.1522,71.4,77,53,5.46,broken clouds
1285,Cabedelo,BR,-6.9811,-34.8339,81.27,77,12,12.91,few clouds
1286,Zihuatanejo,MX,17.6333,-101.55,83.14,72,9,5.79,clear sky
1287,Evanton,GB,57.6638,-4.34,53.96,86,100,10.33,overcast clouds
1288,Kununurra,AU,-15.7667,128.7333,89.58,58,10,5.75,clear sky
1289,Port Dover,CA,42.7834,-80.1997,43.59,70,0,25.72,clear sky
1290,Marsa Matruh,EG,31.3525,27.2453,57.4,62,0,3.44,clear sky
1291,Tsabong,BW,-26.0217,22.401,77.05,45,100,16.24,overcast clouds
1292,Muli,MV,2.9167,73.5667,80.42,79,97,6.69,overcast clouds
1293,Teluk Nibung,ID,3.001,99.8164,73.83,94,75,5.97,broken clouds
1294,Pacifica,US,37.6138,-122.4869,56.73,92,90,8.99,moderate rain
1295,Orlik,RU,52.5178,99.825,-4.22,92,80,3.22,broken clouds
1296,Cockburn Town,TC,21.4612,-71.1419,78.76,69,40,9.22,scattered clouds
1297,Jizan,SA,17.3333,42.6667,76.14,49,0,3.91,clear sky
1298,Kommunisticheskiy,RU,61.6789,64.4819,8.74,98,95,4.34,overcast clouds
1299,Lodja,CD,-3.4833,23.4333,70.45,96,100,0.58,overcast clouds
1300,Avera,US,33.194,-82.5271,58.51,48,0,6.51,clear sky
1301,Tashtagol,RU,52.7657,87.8894,16.72,94,100,7.27,light snow
1302,Rio De Janeiro,BR,-22.9028,-43.2075,77.0,88,90,5.75,mist
1303,Cervo,ES,43.6702,-7.4101,48.52,83,86,5.3,overcast clouds
1304,Russell,US,32.3502,-85.1999,60.4,64,1,4.61,clear sky
1305,Guerrero Negro,MX,27.9769,-114.0611,66.34,48,41,10.04,scattered clouds
1306,Puerto Rondon,CO,6.2805,-71.1,80.33,57,83,5.86,broken clouds
1307,Progreso,MX,21.2833,-89.6667,84.11,78,27,14.83,scattered clouds
1308,Amboasary,MG,-25.0333,46.3833,76.84,88,18,4.99,few clouds
1309,Bandar,ID,2.05,99.75,72.12,99,100,2.17,overcast clouds
1310,Puri,IN,19.8,85.85,66.72,74,18,8.3,few clouds
1311,Evanston,US,42.0411,-87.6901,47.95,47,35,7.0,scattered clouds
1312,Chapais,CA,49.7834,-74.8492,26.38,95,100,11.07,light snow
1313,Agutaya,PH,11.148,120.9417,80.65,86,98,27.89,overcast clouds
1314,Kloulklubed,PW,7.0419,134.2556,79.3,80,74,14.23,broken clouds
1315,Garissa,KE,-0.4536,39.6401,78.24,73,100,10.27,overcast clouds
1316,Fort Abbas,PK,29.1925,72.8536,58.66,23,70,5.86,broken clouds
1317,Oistins,BB,13.0667,-59.5333,80.69,83,75,18.41,broken clouds
1318,Borba,BR,-4.3878,-59.5939,75.94,98,100,2.84,light rain
1319,Henties Bay,NA,-22.116,14.2845,60.85,88,0,6.49,clear sky
1320,Portales,US,34.1862,-103.3344,63.59,14,0,5.01,clear sky
1321,Kushiro,JP,42.975,144.3747,31.15,55,20,17.27,few clouds
1322,Polson,US,47.6936,-114.1632,36.72,70,100,5.99,overcast clouds
1323,Sobolevo,RU,54.4299,31.8996,31.8,96,100,7.67,overcast clouds
1324,Shache,CN,38.4167,77.2406,21.25,64,18,3.18,few clouds
1325,Luena,AO,-11.7833,19.9167,65.44,90,99,3.67,overcast clouds
1326,Taoudenni,ML,22.6783,-3.9836,67.87,17,57,14.14,broken clouds
1327,Mwinilunga,ZM,-11.7358,24.4293,64.9,84,95,3.15,overcast clouds
1328,Suihua,CN,46.6406,126.9969,-7.24,94,63,5.59,broken clouds
1329,Kamenka,RU,51.3223,42.7678,17.74,66,55,12.08,broken clouds
1330,Niamey,NE,13.5137,2.1098,77.29,19,0,2.3,clear sky
1331,Okotoks,CA,50.7289,-113.9828,31.15,72,3,1.99,clear sky
1332,Klyuchi,RU,52.2667,79.1667,1.0,95,62,6.49,broken clouds
1333,Chapleau,CA,47.8405,-83.4034,32.09,74,1,11.5,clear sky
1334,Talalayivka,UA,50.9578,31.9209,37.44,82,100,7.9,overcast clouds
1335,Atar,MR,20.5169,-13.0499,70.83,16,82,8.68,broken clouds
1336,Jacarau,BR,-6.6122,-35.2928,76.08,81,18,8.88,few clouds
1337,Raton,US,36.9034,-104.4391,63.21,3,1,17.27,clear sky
1338,Svetlyy,RU,54.675,20.1347,30.25,95,100,8.57,overcast clouds
1339,Kysyl-Syr,RU,63.8986,122.7617,-23.69,98,100,6.55,overcast clouds
1340,Foso,GH,5.7012,-1.2866,76.84,91,87,3.02,overcast clouds
1341,Usogorsk,RU,63.4106,48.6872,3.79,93,72,5.01,broken clouds
1342,Jimani,DO,18.4917,-71.8502,84.09,60,14,2.39,few clouds
1343,Vanino,RU,49.0869,140.2543,20.39,70,100,16.35,overcast clouds
1344,Kutum,SD,14.2,24.6667,65.41,33,47,5.97,scattered clouds
1345,Raudeberg,NO,61.9875,5.1352,43.86,85,98,8.99,overcast clouds
1346,Aksarka,RU,66.5606,67.7975,-9.51,100,90,2.33,overcast clouds
1347,Kimbe,PG,-5.5502,150.1429,78.22,92,100,1.3,overcast clouds
1348,Basco,PH,20.4487,121.9702,75.97,67,53,23.8,broken clouds
1349,Eureka,US,40.8021,-124.1637,53.2,92,100,1.99,overcast clouds
1350,Port-Gentil,GA,-0.7193,8.7815,79.45,81,99,6.17,overcast clouds
1351,Pokrovskoye,RU,47.4157,38.8971,35.22,67,100,18.12,overcast clouds
1352,Port Shepstone,ZA,-30.7414,30.455,73.69,90,100,4.92,overcast clouds
1353,Horki,BY,54.2861,30.9842,33.15,97,100,6.93,light snow
1354,Snyder,US,32.7179,-100.9176,69.94,11,1,13.8,clear sky
1355,Buraydah,SA,26.326,43.975,50.45,32,73,5.53,broken clouds
1356,Jiexiu,CN,37.0244,111.9125,29.3,37,0,3.74,clear sky
1357,Chebarkul,RU,54.9749,60.3633,10.06,84,61,5.06,broken clouds
1358,Tubuala,PA,9.5167,-79.0333,82.51,80,98,12.88,overcast clouds
1359,Kusa,RU,55.3383,59.4406,4.86,95,90,2.66,overcast clouds
1360,Daru,PG,-9.0763,143.2092,79.16,87,100,12.44,overcast clouds
1361,Roebourne,AU,-20.7833,117.1333,89.94,22,0,10.56,light rain
1362,Isilkul,RU,54.9109,71.2728,10.72,90,95,10.42,overcast clouds
1363,San Andres,CO,12.5847,-81.7006,82.42,78,75,8.05,broken clouds
1364,Tymovskoye,RU,50.8456,142.655,18.37,96,100,4.97,light snow
1365,Nerchinskiy Zavod,RU,51.3088,119.61,-2.2,100,100,2.59,overcast clouds
1366,Sumbe,AO,-11.2061,13.8437,76.91,91,88,4.52,moderate rain
1367,Opuwo,NA,-18.0607,13.84,73.13,63,37,11.05,light rain
1368,Nisia Floresta,BR,-6.0911,-35.2086,83.21,78,11,10.31,few clouds
1369,El Reno,US,35.5323,-97.955,59.18,20,1,24.16,clear sky
1370,Geraldton,AU,-28.7667,114.6,61.21,72,58,6.91,broken clouds
1371,Puerto Ayora,EC,-0.7393,-90.3518,75.16,92,99,7.74,overcast clouds
1372,Lavrentiya,RU,65.5833,-171.0,-14.46,88,16,3.27,few clouds
1373,Airai,TL,-8.9266,125.4092,66.88,78,100,1.05,overcast clouds
1374,Xichang,CN,27.8964,102.2634,42.46,90,69,0.78,broken clouds
1375,Mataura,NZ,-46.1927,168.8643,63.48,42,59,3.27,broken clouds
1376,Rikitea,PF,-23.1203,-134.9692,77.65,76,87,8.63,light rain
1377,Busselton,AU,-33.65,115.3333,51.08,60,100,8.81,overcast clouds
1378,Sawtell,AU,-30.3833,153.1,71.92,75,40,13.8,scattered clouds
1379,Patnanungan,PH,14.7833,122.1833,78.67,83,100,24.14,overcast clouds
1380,Abu Kamal,SY,34.4506,40.9171,55.54,47,100,1.88,overcast clouds
1381,New Norfolk,AU,-42.7826,147.0587,63.91,52,11,3.0,few clouds
1382,Kortkeros,RU,61.8106,51.5806,1.4,96,89,4.83,overcast clouds
1383,Sitka,US,57.0531,-135.33,35.49,69,90,8.05,overcast clouds
1384,Foca,TR,38.6703,26.7566,57.04,83,100,16.82,overcast clouds
1385,Georgetown,MY,5.4112,100.3354,79.9,82,20,0.0,few clouds
1386,Hilo,US,19.7297,-155.09,80.11,58,75,5.75,broken clouds
1387,Carnarvon,AU,-24.8667,113.6333,68.07,73,3,14.97,clear sky
1388,Vidim,RU,56.4088,103.1106,5.04,97,100,3.85,overcast clouds
1389,Arraial Do Cabo,BR,-22.9661,-42.0278,76.69,89,86,22.39,light rain
1390,Inta,RU,66.0317,60.1659,10.58,94,100,11.83,overcast clouds
1391,Ushuaia,AR,-54.8,-68.3,46.06,49,75,26.46,broken clouds
1392,Pangody,RU,65.85,74.4859,-27.44,99,19,5.23,few clouds
1393,Provideniya,RU,64.3833,-173.3,-8.64,64,0,2.24,clear sky
1394,Nexo,DK,55.0607,15.1306,39.29,91,100,10.27,overcast clouds
1395,Cherskiy,RU,68.75,161.3,-43.15,100,50,1.59,scattered clouds
1396,Komsomolskiy,UZ,40.4272,71.7189,35.02,55,43,6.91,haze
1397,Albany,US,42.6001,-73.9662,40.8,44,0,9.08,clear sky
1398,Grindavik,IS,63.8424,-22.4338,41.47,87,75,17.27,light rain
1399,Jamestown,US,42.097,-79.2353,42.39,51,1,8.99,clear sky
1400,Mahebourg,MU,-20.4081,57.7,75.49,88,75,17.27,light intensity shower rain
1401,Ulladulla,AU,-35.35,150.4667,66.87,66,1,4.79,clear sky
1402,Vaini,TO,-21.2,-175.2,82.56,83,40,13.8,light rain
1403,Vizianagaram,IN,18.1167,83.4167,68.41,85,33,4.63,scattered clouds
1404,Adiake,CI,5.2863,-3.304,83.79,85,29,6.22,scattered clouds
1405,Saskylakh,RU,71.9167,114.0833,-44.9,100,70,3.33,broken clouds
1406,Riyadh,SA,24.6877,46.7219,51.94,30,36,5.99,scattered clouds
1407,Otane,NZ,-39.8833,176.6333,71.38,88,100,7.49,overcast clouds
1408,Ribeira Grande,PT,38.5167,-28.7,58.69,53,100,18.77,overcast clouds
1409,Bethel,US,41.3712,-73.414,43.57,45,1,3.44,clear sky
1410,Gonaives,HT,19.45,-72.6833,82.38,74,7,7.49,clear sky
1411,Oranjemund,NA,-28.55,16.4333,61.83,92,56,2.77,broken clouds
1412,Samarai,PG,-10.6167,150.6667,83.59,75,100,11.1,overcast clouds
1413,East London,ZA,-33.0153,27.9116,71.85,95,100,7.87,light rain
1414,Punta Arenas,CL,-53.15,-70.9167,50.11,34,0,23.02,clear sky
1415,La Plata,AR,-34.9215,-57.9545,78.71,78,70,8.81,broken clouds
1416,Castro,BR,-24.7911,-50.0119,71.85,49,92,4.38,overcast clouds
1417,Port Elizabeth,ZA,-33.918,25.5701,71.1,88,90,4.61,overcast clouds
1418,Hithadhoo,MV,-0.6,73.0833,80.83,79,100,11.1,overcast clouds
1419,Almaznyy,RU,48.0448,40.045,26.74,58,100,17.29,overcast clouds
1420,Avarua,CK,-21.2078,-159.775,73.45,94,75,11.5,heavy intensity rain
1421,Quelimane,MZ,-17.8786,36.8883,82.35,69,0,14.0,clear sky
1422,Pimentel,PE,-6.8367,-79.9342,73.69,64,0,17.27,clear sky
1423,Sayat,TM,38.7839,63.8803,37.27,84,99,7.65,overcast clouds
1424,Barrow,US,71.2906,-156.7887,-12.98,77,1,13.8,clear sky
1425,Sao Joao Da Barra,BR,-21.6403,-41.0511,76.21,90,90,21.83,overcast clouds
1426,Tessalit,ML,20.1986,1.0114,69.76,9,14,8.93,few clouds
1427,Catuday,PH,16.2923,119.8062,77.05,74,80,10.02,broken clouds
1428,Suntar,RU,62.1444,117.6319,-15.81,95,100,6.55,overcast clouds
1429,Katsuura,JP,35.1333,140.3,51.91,62,80,14.97,broken clouds
1430,Aosta,IT,45.7667,7.4167,28.9,72,5,4.0,clear sky
1431,Tilichiki,RU,60.4667,166.1,-7.87,81,100,17.67,overcast clouds
1432,Uxbridge,US,42.0773,-71.6295,42.35,56,3,1.99,clear sky
1433,Tuktoyaktuk,CA,69.4541,-133.0374,-5.8,77,90,18.41,light snow
1434,Mar Del Plata,AR,-38.0023,-57.5575,73.42,84,75,1.99,broken clouds
1435,Gizo,SB,-8.103,156.8419,84.45,74,67,6.38,broken clouds
1436,Dingle,PH,10.9995,122.6711,76.8,92,88,8.25,overcast clouds
1437,Isangel,VU,-19.55,169.2667,83.21,77,100,10.02,overcast clouds
1438,Alice Springs,AU,-23.7,133.8833,80.15,34,26,10.36,scattered clouds
1439,Bluff,NZ,-46.6,168.3333,63.81,71,22,7.27,few clouds
1440,Husavik,IS,66.0449,-17.3389,40.91,79,95,13.69,overcast clouds
1441,The Hammocks,US,25.6715,-80.4445,80.62,78,1,11.5,clear sky
1442,Sibolga,ID,1.7427,98.7792,75.42,91,100,1.19,overcast clouds
1443,Rusape,ZW,-18.5278,32.1284,64.09,73,42,4.7,scattered clouds
1444,Hanover,DE,52.3705,9.7332,48.87,95,90,10.36,light intensity drizzle
1445,Xining,CN,36.6167,101.7667,21.27,30,0,2.53,clear sky
1446,Hermanus,ZA,-34.4187,19.2345,64.9,88,62,7.61,broken clouds
1447,Agirish,RU,61.9247,63.0231,10.42,90,98,4.85,overcast clouds
1448,Bredy,RU,52.4153,60.3411,6.69,86,7,5.1,clear sky
1449,Male,MV,4.1748,73.5089,80.55,89,75,8.05,broken clouds
1450,Rovaniemi,FI,66.5,25.7167,26.01,100,90,6.91,fog
1451,Bambous Virieux,MU,-20.3428,57.7575,75.45,88,75,17.27,light intensity shower rain
1452,Lompoc,US,34.6391,-120.4579,65.08,57,1,14.97,clear sky
1453,Cape Town,ZA,-33.9258,18.4232,66.61,79,20,1.99,few clouds
1454,Byron Bay,AU,-28.65,153.6167,75.18,77,95,10.49,overcast clouds
1455,Victoria,HK,22.2855,114.1577,65.32,70,53,1.01,broken clouds
1456,Fuling,CN,29.7022,107.3919,49.78,90,98,2.13,overcast clouds
1457,Gat,IL,31.61,34.7642,71.78,31,100,1.74,overcast clouds
1458,Esperance,AU,-33.8667,121.9,55.24,53,68,4.38,broken clouds
1459,Bara,NG,10.3744,10.7288,73.18,26,86,8.03,overcast clouds
1460,Bubaque,GW,11.2833,-15.8333,81.21,73,21,13.27,few clouds
1461,Chateauroux,FR,46.8167,1.7,48.2,93,90,4.61,overcast clouds
1462,Constitucion,CL,-35.3333,-72.4167,57.96,62,1,18.7,clear sky
1463,Mchinji,MW,-13.7984,32.8802,68.2,56,0,4.59,clear sky
1464,Hamada,JP,34.8833,132.0833,45.0,70,85,9.04,light rain
1465,Luchenza,MW,-16.0069,35.3095,77.38,47,88,2.93,overcast clouds
1466,Pevek,RU,69.7008,170.3133,-32.93,96,13,1.54,few clouds
1467,Cabo San Lucas,MX,22.8909,-109.9124,79.52,67,20,4.61,few clouds
1468,Yelizovo,RU,53.1873,158.3805,28.54,74,75,4.0,broken clouds
1469,Nishihara,JP,26.1842,127.7558,67.28,78,75,9.22,mist
1470,Ponta Do Sol,PT,32.6667,-17.1,64.71,77,46,1.7,scattered clouds
1471,Kodiak,US,57.79,-152.4072,14.29,57,1,34.52,clear sky
1472,Tiksi,RU,71.6872,128.8694,-18.94,100,100,2.89,overcast clouds
1473,Pisco,PE,-13.7,-76.2167,69.85,83,20,18.41,few clouds
1474,Mikhaylovka,RU,50.06,43.2379,21.78,61,89,11.81,overcast clouds
1475,Betare Oya,CM,5.6,14.0833,72.86,32,79,5.03,broken clouds
1476,Rosetta,EG,31.4044,30.4164,60.62,64,100,6.76,overcast clouds
1477,Laguna,US,38.421,-121.4238,54.41,87,90,3.0,haze
1478,Atuona,PF,-9.8,-139.0333,79.11,78,15,18.97,few clouds
1479,Ingham,US,42.6,-84.3833,43.95,58,1,3.44,clear sky
1480,Birao,CF,10.2849,22.7882,72.18,30,78,5.86,broken clouds
1481,Hobart,AU,-42.8794,147.3294,64.26,60,20,4.0,few clouds
1482,Half Moon Bay,US,37.4636,-122.4286,56.52,89,75,5.01,mist
1483,Batemans Bay,AU,-35.7167,150.1833,73.2,61,2,4.09,clear sky
1484,Thompson,CA,55.7435,-97.8558,3.36,78,90,0.0,light snow
1485,Dikson,RU,73.5069,80.5464,-16.83,95,96,15.1,overcast clouds
1486,Bredasdorp,ZA,-34.5322,20.0403,60.28,86,100,3.74,overcast clouds
1487,Belyy Yar,RU,53.6039,91.3903,15.69,79,40,8.95,light shower snow
1488,Festus,US,38.2206,-90.396,52.25,40,0,7.56,clear sky
1489,Kindu,CD,-2.95,25.95,71.1,92,100,0.92,overcast clouds
1490,Lodwar,KE,3.1191,35.5973,82.76,41,100,19.13,overcast clouds
1491,Lorengau,PG,-2.0226,147.2712,82.96,82,100,15.28,overcast clouds
1492,Port Moresby,PG,-9.4431,147.1797,78.22,89,75,5.75,broken clouds
1493,Nikolskoye,RU,59.7035,30.7861,24.4,99,100,3.29,light snow
1494,Harlingen,US,26.1906,-97.6961,68.18,57,90,10.36,overcast clouds
1495,Quatre Cocos,MU,-20.2078,57.7625,75.31,72,89,12.17,overcast clouds
1496,Yellowknife,CA,62.456,-114.3525,9.12,85,90,8.05,light snow
1497,Upernavik,GL,72.7868,-56.1549,6.24,92,100,10.6,overcast clouds
1498,Taltal,CL,-25.4,-70.4833,63.52,76,26,4.56,scattered clouds
1499,Padang,ID,-0.9492,100.3543,77.05,93,100,1.66,overcast clouds
1500,Qaanaaq,GL,77.484,-69.3632,-3.71,72,79,3.78,broken clouds
1501,Saint George,US,37.1041,-113.5841,61.27,37,1,3.0,clear sky
1502,Maragogi,BR,-9.0122,-35.2225,79.03,79,21,11.36,few clouds
1503,Bambanglipuro,ID,-7.95,110.2833,62.6,83,96,3.62,overcast clouds
1504,Ahipara,NZ,-35.1667,173.1667,70.56,92,100,7.27,moderate rain
1505,Lensk,RU,60.7253,114.9278,-13.02,98,100,3.62,overcast clouds
1506,Hit,IQ,33.6416,42.8251,57.02,40,91,8.14,overcast clouds
1507,Maniitsoq,GL,65.4167,-52.9,19.63,65,7,5.08,clear sky
1508,Sao Jose Da Coroa Grande,BR,-8.8978,-35.1478,79.14,79,22,11.12,few clouds
1509,Kaitangata,NZ,-46.2817,169.8464,59.94,66,62,5.19,broken clouds
1510,Khatanga,RU,71.9667,102.5,-51.12,99,80,3.85,broken clouds
1511,Inhambane,MZ,-23.865,35.3833,78.31,95,10,7.72,clear sky
1512,Mwanza,TZ,-2.5167,32.9,70.12,81,97,13.89,moderate rain
1513,Ambilobe,MG,-13.2,49.05,72.95,79,7,3.96,clear sky
1514,Saint-Philippe,RE,-21.3585,55.7679,76.59,74,80,11.32,broken clouds
1515,Butaritari,KI,3.0707,172.7902,82.62,71,74,16.37,broken clouds
1516,Hasaki,JP,35.7333,140.8333,50.22,52,59,21.27,broken clouds
1517,Port Alfred,ZA,-33.5906,26.891,71.02,96,100,14.23,overcast clouds
1518,Severo-Kurilsk,RU,50.6789,156.125,33.19,87,80,12.46,broken clouds
1519,Sainte-Suzanne,RE,-20.9061,55.6089,77.22,69,90,18.41,overcast clouds
1520,Benguela,AO,-12.5763,13.4055,77.4,82,91,4.05,overcast clouds
1521,Kamina,CD,-8.7386,24.9906,65.26,98,100,8.12,light rain
1522,Ballina,AU,-28.8667,153.5667,71.64,84,90,6.91,overcast clouds
1523,Clyde River,CA,70.4692,-68.5914,-1.97,92,90,10.36,light snow
1524,Osypenko,UA,46.9136,36.8253,39.65,74,100,20.45,overcast clouds
1525,Mtsensk,RU,53.2766,36.5733,28.18,84,98,10.89,overcast clouds
1526,Vao,NC,-22.6667,167.4833,75.67,93,100,14.32,overcast clouds
1527,Puerto Cabezas,NI,14.0351,-83.3888,82.36,83,75,6.91,broken clouds
1528,Kruisfontein,ZA,-34.0033,24.7314,68.88,94,100,8.72,overcast clouds
1529,San Juan,AR,-31.5375,-68.5364,77.14,40,7,19.37,clear sky
1530,Port Lincoln,AU,-34.7333,135.8667,62.47,64,88,14.36,overcast clouds
1531,Kuching,MY,1.55,110.3333,75.42,94,40,3.44,scattered clouds
1532,Cidreira,BR,-30.1811,-50.2056,71.49,87,1,13.94,clear sky
1533,Chokurdakh,RU,70.6333,147.9167,-38.67,97,98,2.33,overcast clouds
1534,Honningsvag,NO,70.9821,25.9704,31.53,95,100,17.85,light snow
1535,Siguiri,GN,11.6667,-9.5,75.61,15,84,0.43,broken clouds
1536,Alofi,NU,-19.0595,-169.9187,82.29,69,7,11.5,clear sky
1537,Nizhniy Odes,RU,63.6445,54.856,12.85,91,100,5.95,overcast clouds
1538,Linjiang,CN,41.8069,126.9078,0.18,92,32,1.52,scattered clouds
1539,Grand-Santi,GF,4.25,-54.3833,73.62,99,100,2.57,overcast clouds
1540,Cayenne,GF,4.9333,-52.3333,77.09,92,75,5.01,light rain
1541,Chinsali,ZM,-10.5414,32.0816,65.37,70,70,1.95,broken clouds
1542,Magadan,RU,59.5667,150.8,7.54,95,100,11.03,light snow
1543,Nome,US,64.5011,-165.4064,-12.93,64,1,6.91,clear sky
1544,Mana,GF,5.6592,-53.7767,76.59,92,100,10.6,overcast clouds
1545,Muros,ES,42.7762,-9.0603,56.84,96,68,6.26,broken clouds
1546,Bodden Town,KY,19.2833,-81.25,84.2,79,20,4.0,few clouds
1547,Dalkeith,GB,55.8934,-3.0638,54.09,81,98,8.01,overcast clouds
1548,Dunedin,NZ,-45.8742,170.5036,61.54,62,62,5.82,broken clouds
